{"0":{"store":"屈臣氏","store_name":"七堵門市","address":"基隆市七堵區明德一路188號1-2F","lat":25.0974525,"lng":121.7130302},"1":{"store":"屈臣氏","store_name":"仁三門市","address":"基隆市仁愛區仁三路68號","lat":25.1288711,"lng":121.7426695},"2":{"store":"屈臣氏","store_name":"基隆門市","address":"基隆市仁愛區忠一路8號","lat":25.1308965,"lng":121.740541},"3":{"store":"屈臣氏","store_name":"廟口門市","address":"基隆市仁愛區愛四路76號","lat":25.1295536,"lng":121.7445376},"4":{"store":"屈臣氏","store_name":"安一門市","address":"基隆市安樂區安一路115號","lat":25.1318384,"lng":121.7344835},"5":{"store":"屈臣氏","store_name":"安樂門市","address":"基隆市安樂區安樂路二段159號1-2F","lat":25.120703,"lng":121.723488},"6":{"store":"屈臣氏","store_name":"大武崙門市","address":"基隆市安樂區基金一路172-1號1-2F","lat":25.140837,"lng":121.711277},"7":{"store":"屈臣氏","store_name":"深溪門市","address":"基隆市信義區深溪路192號","lat":25.1349438,"lng":121.7829088},"8":{"store":"屈臣氏","store_name":"暖暖門市","address":"基隆市暖暖區暖暖街181號","lat":25.09928,"lng":121.7359079},"9":{"store":"屈臣氏","store_name":"士東門市","address":"台北市士林區士東路134號","lat":25.112182,"lng":121.5303888},"10":{"store":"屈臣氏","store_name":"劍潭門市","address":"台北市士林區大東路11-7號1樓","lat":25.0868169,"lng":121.5252972},"11":{"store":"屈臣氏","store_name":"士捷門市","address":"台北市士林區中正路243號","lat":25.0951382,"lng":121.5257982},"12":{"store":"屈臣氏","store_name":"士林門市","address":"台北市士林區中正路285號","lat":25.0947693,"lng":121.5241239},"13":{"store":"屈臣氏","store_name":"天北門市","address":"台北市士林區天母北路6號1樓","lat":25.1190475,"lng":121.5260698},"14":{"store":"屈臣氏","store_name":"天東門市","address":"台北市士林區天母東路32號","lat":25.117948,"lng":121.5322296},"15":{"store":"屈臣氏","store_name":"文林門市","address":"台北市士林區文林路130號","lat":25.0885386,"lng":121.5265468},"16":{"store":"屈臣氏","store_name":"延平門市","address":"台北市士林區延平北路五段268號","lat":25.0851107,"lng":121.5099094},"17":{"store":"屈臣氏","store_name":"延二門市","address":"台北市士林區延平北路六段2、6號1-3F","lat":25.0869854,"lng":121.5093362},"18":{"store":"屈臣氏","store_name":"劍潭2門市","address":"台北市士林區劍潭路15號","lat":25.0842354,"lng":121.5229738},"19":{"store":"屈臣氏","store_name":"德行西門市","address":"台北市士林區德行西路78號1樓","lat":25.1045016,"lng":121.521938},"20":{"store":"屈臣氏","store_name":"德行東門市","address":"台北市士林區德行東路110~112號","lat":25.107711,"lng":121.5286826},"21":{"store":"屈臣氏","store_name":"德行門市","address":"台北市士林區德行東路224號","lat":25.1091076,"lng":121.5325994},"22":{"store":"屈臣氏","store_name":"京站門市","address":"台北市大同區市民大道一段209號1樓","lat":25.049116,"lng":121.5185352},"23":{"store":"屈臣氏","store_name":"延三門市","address":"台北市大同區延平北路三段33號","lat":25.0647715,"lng":121.5112303},"24":{"store":"屈臣氏","store_name":"南西二門市","address":"台北市大同區南京西路42號","lat":25.0526999,"lng":121.5194374},"25":{"store":"屈臣氏","store_name":"酒泉門市","address":"台北市大同區酒泉街70號1-2F","lat":25.071945,"lng":121.515291},"26":{"store":"屈臣氏","store_name":"寧夏門市","address":"台北市大同區寧夏路9號","lat":25.054475,"lng":121.515192},"27":{"store":"屈臣氏","store_name":"永信門市","address":"台北市大安區永康街2號","lat":25.0332989,"lng":121.529752},"28":{"store":"屈臣氏","store_name":"臨江門市","address":"台北市大安區光復南路704號","lat":25.0295676,"lng":121.5571492},"29":{"store":"屈臣氏","store_name":"安居門市","address":"台北市大安區安居街27號1樓","lat":25.0205622,"lng":121.5546301},"30":{"store":"屈臣氏","store_name":"和平東門市","address":"台北市大安區和平東路一段29號","lat":25.0272502,"lng":121.5232883},"31":{"store":"屈臣氏","store_name":"臥龍門市","address":"台北市大安區和平東路二段365號","lat":25.0249436,"lng":121.5465847},"32":{"store":"屈臣氏","store_name":"和平門市","address":"台北市大安區和平東路二段55、57號","lat":25.0257522,"lng":121.5385237},"33":{"store":"屈臣氏","store_name":"崇光門市","address":"台北市大安區忠孝東路四段15號","lat":25.0418439,"lng":121.5444033},"34":{"store":"屈臣氏","store_name":"統領門市","address":"台北市大安區忠孝東路四段209號","lat":25.041674,"lng":121.5520758},"35":{"store":"屈臣氏","store_name":"忠孝東門市","address":"台北市大安區忠孝東路四段339號","lat":25.0416608,"lng":121.5571868},"36":{"store":"屈臣氏","store_name":"信義三門市","address":"台北市大安區信義路四段22號1-2F","lat":25.0330582,"lng":121.5444411},"37":{"store":"屈臣氏","store_name":"通化門市","address":"台北市大安區信義路四段296號1-2F","lat":25.0329744,"lng":121.5545027},"38":{"store":"屈臣氏","store_name":"龍泉門市","address":"台北市大安區師大路125號","lat":25.0219425,"lng":121.5283301},"39":{"store":"屈臣氏","store_name":"師大門市","address":"台北市大安區師大路43號","lat":25.0245472,"lng":121.528653},"40":{"store":"屈臣氏","store_name":"南山門市","address":"台北市大安區通化街37號","lat":25.0310326,"lng":121.5543472},"41":{"store":"屈臣氏","store_name":"科技門市","address":"台北市大安區復興南路二段205號","lat":25.0262091,"lng":121.5437128},"42":{"store":"屈臣氏","store_name":"校園門市","address":"台北市大安區新生南路三段112號1-3F","lat":25.016691,"lng":121.53271},"43":{"store":"屈臣氏","store_name":"實踐門市","address":"台北市中山區大直街43號","lat":25.0826799,"lng":121.546473},"44":{"store":"屈臣氏","store_name":"大直門市","address":"台北市中山區北安路520-4號","lat":25.079693,"lng":121.546254},"45":{"store":"屈臣氏","store_name":"雙連門市","address":"台北市中山區民生西路54號","lat":25.0575681,"lng":121.5211421},"46":{"store":"屈臣氏","store_name":"民捷門市","address":"台北市中山區民權西路64號","lat":25.0625926,"lng":121.5200713},"47":{"store":"屈臣氏","store_name":"林森北門市","address":"台北市中山區林森北路131號1樓","lat":25.051017,"lng":121.525232},"48":{"store":"屈臣氏","store_name":"林森門市","address":"台北市中山區林森北路380號","lat":25.0584415,"lng":121.5253511},"49":{"store":"屈臣氏","store_name":"松江門市","address":"台北市中山區松江路287號","lat":25.0604579,"lng":121.533551},"50":{"store":"屈臣氏","store_name":"長安東門市","address":"台北市中山區長安東路二段77號","lat":25.0486095,"lng":121.5344337},"51":{"store":"屈臣氏","store_name":"長春門市","address":"台北市中山區長春路184號","lat":25.0546275,"lng":121.5346469},"52":{"store":"屈臣氏","store_name":"南京西門市","address":"台北市中山區南京西路3-2號","lat":25.0525991,"lng":121.5215124},"53":{"store":"屈臣氏","store_name":"伊通門市","address":"台北市中山區南京東路二段178號","lat":25.0518054,"lng":121.5350793},"54":{"store":"屈臣氏","store_name":"新南京門市","address":"台北市中山區南京東路二段50號","lat":25.0517979,"lng":121.52967},"55":{"store":"屈臣氏","store_name":"南京東門市","address":"台北市中山區南京東路三段125號","lat":25.0521415,"lng":121.5402002},"56":{"store":"屈臣氏","store_name":"復北門市","address":"台北市中山區復興北路60號","lat":25.0502414,"lng":121.54378},"57":{"store":"屈臣氏","store_name":"大食代門市","address":"台北市中山區樂群三路218號1樓","lat":25.0823188,"lng":121.5579616},"58":{"store":"屈臣氏","store_name":"錦州門市","address":"台北市中山區錦州街448號1樓","lat":25.060026,"lng":121.5433145},"59":{"store":"屈臣氏","store_name":"龍江門市","address":"台北市中山區龍江路283號","lat":25.0604024,"lng":121.5409246},"60":{"store":"屈臣氏","store_name":"龍江二門市","address":"台北市中山區龍江路356巷16號","lat":25.0658731,"lng":121.5402216},"61":{"store":"屈臣氏","store_name":"農安門市","address":"台北市中山區雙城街14號","lat":25.0648286,"lng":121.524139},"62":{"store":"屈臣氏","store_name":"微風站門市","address":"台北市中正區北平西路3號1樓","lat":25.047702,"lng":121.5173735},"63":{"store":"屈臣氏","store_name":"誠品站門市","address":"台北市中正區忠孝西路一段47號","lat":25.046753,"lng":121.517177},"64":{"store":"屈臣氏","store_name":"誠品捷門市","address":"台北市中正區忠孝西路一段49號B1","lat":25.0463846,"lng":121.5178642},"65":{"store":"屈臣氏","store_name":"新古亭門市","address":"台北市中正區南昌路二段70號","lat":25.0266382,"lng":121.5211843},"66":{"store":"屈臣氏","store_name":"南陽門市","address":"台北市中正區南陽街15號","lat":25.0443603,"lng":121.5161577},"67":{"store":"屈臣氏","store_name":"城中門市","address":"台北市中正區重慶南路一段56號","lat":25.0442289,"lng":121.513089},"68":{"store":"屈臣氏","store_name":"新生門市","address":"台北市中正區新生南路一段104號","lat":25.0397772,"lng":121.532522},"69":{"store":"屈臣氏","store_name":"寧波門市","address":"台北市中正區寧波西街46號","lat":25.030828,"lng":121.517923},"70":{"store":"屈臣氏","store_name":"館前門市","address":"台北市中正區館前路18號1樓","lat":25.0453593,"lng":121.5148659},"71":{"store":"屈臣氏","store_name":"羅二門市","address":"台北市中正區羅斯福路四段58號","lat":25.014839,"lng":121.53392},"72":{"store":"屈臣氏","store_name":"德明門市","address":"台北市內湖區內湖路一段279號1-2F","lat":25.0825062,"lng":121.5658343},"73":{"store":"屈臣氏","store_name":"港墘門市","address":"台北市內湖區內湖路一段737巷37號","lat":25.0798983,"lng":121.5788918},"74":{"store":"屈臣氏","store_name":"三總門市","address":"台北市內湖區成功路二段325號B1","lat":25.0718315,"lng":121.5899564},"75":{"store":"屈臣氏","store_name":"內湖門市","address":"台北市內湖區成功路四段46號","lat":25.0820326,"lng":121.5920146},"76":{"store":"屈臣氏","store_name":"東湖門市","address":"台北市內湖區東湖路31號","lat":25.0689387,"lng":121.6134707},"77":{"store":"屈臣氏","store_name":"康樂門市","address":"台北市內湖區康樂街116-4號","lat":25.0710396,"lng":121.6190127},"78":{"store":"屈臣氏","store_name":"木柵3門市","address":"台北市文山區木柵路三段59、61號1-2F","lat":24.988661,"lng":121.566462},"79":{"store":"屈臣氏","store_name":"政大門市","address":"台北市文山區指南路二段123、125號","lat":24.9875967,"lng":121.5766765},"80":{"store":"屈臣氏","store_name":"景美門市","address":"台北市文山區景文街56號","lat":24.991007,"lng":121.54112},"81":{"store":"屈臣氏","store_name":"景美2門市","address":"台北市文山區景興路195號","lat":24.9919802,"lng":121.5441138},"82":{"store":"屈臣氏","store_name":"木柵門市","address":"台北市文山區興隆路三段53號","lat":25.0003835,"lng":121.55612},"83":{"store":"屈臣氏","store_name":"北投二門市","address":"台北市北投區中和街319號1-3樓、321號1樓","lat":25.1407181,"lng":121.499818},"84":{"store":"屈臣氏","store_name":"石牌門市","address":"台北市北投區石牌路二段76號","lat":25.1165908,"lng":121.5162735},"85":{"store":"屈臣氏","store_name":"北投門市","address":"台北市北投區光明路223、223-1號","lat":25.136456,"lng":121.504124},"86":{"store":"屈臣氏","store_name":"自強門市","address":"台北市北投區自強街88號&92號","lat":25.1106171,"lng":121.514871},"87":{"store":"屈臣氏","store_name":"知行門市","address":"台北市北投區知行路222號1-2樓","lat":25.12059,"lng":121.4672887},"88":{"store":"屈臣氏","store_name":"磺港門市","address":"台北市北投區磺港路8號","lat":25.133249,"lng":121.502095},"89":{"store":"屈臣氏","store_name":"台安門市","address":"台北市松山區八德路二段406號","lat":25.048098,"lng":121.5468166},"90":{"store":"屈臣氏","store_name":"京華城門市","address":"台北市松山區八德路四段138號B2","lat":25.0481184,"lng":121.5618219},"91":{"store":"屈臣氏","store_name":"松山門市","address":"台北市松山區八德路四段725號","lat":25.0501371,"lng":121.5773469},"92":{"store":"屈臣氏","store_name":"總公司門市","address":"台北市松山區八德路四段760號11樓","lat":25.0501013,"lng":121.5793154},"93":{"store":"屈臣氏","store_name":"民環門市","address":"台北市松山區民生東路五段188號","lat":25.0586844,"lng":121.5641729},"94":{"store":"屈臣氏","store_name":"民生門市","address":"台北市松山區民生東路四段60號","lat":25.057794,"lng":121.551796},"95":{"store":"屈臣氏","store_name":"民權門市","address":"台北市松山區民權東路三段136號","lat":25.0618461,"lng":121.5464189},"96":{"store":"屈臣氏","store_name":"延吉門市","address":"台北市松山區延吉街7、7-1號","lat":25.047526,"lng":121.553526},"97":{"store":"屈臣氏","store_name":"五分埔門市","address":"台北市松山區松山路111號B1-1F","lat":25.047693,"lng":121.578004},"98":{"store":"屈臣氏","store_name":"東興門市","address":"台北市松山區南京東路5段301號1~3樓","lat":25.051388,"lng":121.544913},"99":{"store":"屈臣氏","store_name":"復興門市","address":"台北市松山區南京東路三段259號","lat":25.0520289,"lng":121.5449105},"100":{"store":"屈臣氏","store_name":"南二門市","address":"台北市松山區南京東路五段64號","lat":25.0512938,"lng":121.5606515},"101":{"store":"屈臣氏","store_name":"南寧門市","address":"台北市松山區南京東路四段131號","lat":25.0518337,"lng":121.5550115},"102":{"store":"屈臣氏","store_name":"復興南門市","address":"台北市松山區復興南路一段49號B1~1樓","lat":25.0454446,"lng":121.5440388},"103":{"store":"屈臣氏","store_name":"光南門市","address":"台北市信義區光復南路445-1、445-2號","lat":25.0353955,"lng":121.5576874},"104":{"store":"屈臣氏","store_name":"吳興門市","address":"台北市信義區吳興街225號","lat":25.0278055,"lng":121.5630978},"105":{"store":"屈臣氏","store_name":"和平三門市","address":"台北市信義區和平東路三段433號1樓及435巷2號B1","lat":25.0191438,"lng":121.5583185},"106":{"store":"屈臣氏","store_name":"永吉門市","address":"台北市信義區忠孝東路五段165巷1號1樓","lat":25.0416256,"lng":121.5688624},"107":{"store":"屈臣氏","store_name":"忠五門市","address":"台北市信義區忠孝東路五段494號","lat":25.040841,"lng":121.578389},"108":{"store":"屈臣氏","store_name":"松二門市","address":"台北市信義區松山路564、566號","lat":25.037309,"lng":121.578158},"109":{"store":"屈臣氏","store_name":"誠品信門市","address":"台北市信義區松高路11號B2F","lat":25.0397197,"lng":121.5658739},"110":{"store":"屈臣氏","store_name":"威秀門市","address":"台北市信義區松壽路20號1樓","lat":25.0356356,"lng":121.5670989},"111":{"store":"屈臣氏","store_name":"福德門市","address":"台北市信義區福德街191號1-2F","lat":25.0382944,"lng":121.5842543},"112":{"store":"屈臣氏","store_name":"中坡門市","address":"台北市南港區忠孝東路五段982號","lat":25.044545,"lng":121.582515},"113":{"store":"屈臣氏","store_name":"昆陽門市","address":"台北市南港區忠孝東路六段440號","lat":25.0501661,"lng":121.5937953},"114":{"store":"屈臣氏","store_name":"西門門市","address":"台北市萬華區成都路15號","lat":25.0426079,"lng":121.507201},"115":{"store":"屈臣氏","store_name":"西園門市","address":"台北市萬華區西園路一段198號1-2F","lat":25.036062,"lng":121.499211},"116":{"store":"屈臣氏","store_name":"武昌門市","address":"台北市萬華區武昌街二段37、39號","lat":25.0446766,"lng":121.5077356},"117":{"store":"屈臣氏","store_name":"武昌二門市","address":"台北市萬華區武昌街二段81、83號","lat":25.0452339,"lng":121.5052271},"118":{"store":"屈臣氏","store_name":"萬大門市","address":"台北市萬華區萬大路497號","lat":25.0199129,"lng":121.497807},"119":{"store":"屈臣氏","store_name":"三芝門市","address":"新北市三芝區育英街1號","lat":25.2587949,"lng":121.5016779},"120":{"store":"屈臣氏","store_name":"三和門市","address":"新北市三重區三和路四段155巷2號、157號","lat":25.0784754,"lng":121.4836543},"121":{"store":"屈臣氏","store_name":"三和2門市","address":"新北市三重區三和路四段420號","lat":25.079755,"lng":121.480616},"122":{"store":"屈臣氏","store_name":"中央門市","address":"新北市三重區中央北路134號","lat":25.0681686,"lng":121.4996954},"123":{"store":"屈臣氏","store_name":"中正北門市","address":"新北市三重區中正北路189號1-2樓","lat":25.0696234,"lng":121.4773985},"124":{"store":"屈臣氏","store_name":"三華門市","address":"新北市三重區中華路99、101號1-4F","lat":25.063155,"lng":121.483676},"125":{"store":"屈臣氏","store_name":"五華門市","address":"新北市三重區五華街59、61號","lat":25.0825694,"lng":121.4927942},"126":{"store":"屈臣氏","store_name":"正義門市","address":"新北市三重區正義北路179號","lat":25.0676114,"lng":121.4964638},"127":{"store":"屈臣氏","store_name":"力行門市","address":"新北市三重區忠孝路二段107號、力行路一段183號","lat":25.0697229,"lng":121.4839403},"128":{"store":"屈臣氏","store_name":"三重門市","address":"新北市三重區重新路二段78號","lat":25.0618238,"lng":121.4973065},"129":{"store":"屈臣氏","store_name":"集美門市","address":"新北市三重區集美街103號","lat":25.053027,"lng":121.4892306},"130":{"store":"屈臣氏","store_name":"溪尾門市","address":"新北市三重區溪尾街185、187號1樓","lat":25.0805684,"lng":121.4887765},"131":{"store":"屈臣氏","store_name":"學勤門市","address":"新北市三峽區大學路150-2號","lat":24.9445632,"lng":121.3743822},"132":{"store":"屈臣氏","store_name":"三峽門市","address":"新北市三峽區民生街119-2號","lat":24.935204,"lng":121.373633},"133":{"store":"屈臣氏","store_name":"土城2門市","address":"新北市土城區中央路二段169號","lat":24.976131,"lng":121.442153},"134":{"store":"屈臣氏","store_name":"延和門市","address":"新北市土城區延和路170號","lat":24.990243,"lng":121.468612},"135":{"store":"屈臣氏","store_name":"金城門市","address":"新北市土城區金城路三段1、3號","lat":24.986217,"lng":121.464401},"136":{"store":"屈臣氏","store_name":"裕民門市","address":"新北市土城區裕民路52號","lat":24.9880618,"lng":121.4484074},"137":{"store":"屈臣氏","store_name":"土城門市","address":"新北市土城區學府路一段109號","lat":24.9874724,"lng":121.4557403},"138":{"store":"屈臣氏","store_name":"漢生門市","address":"新北市中和區中山路三段191、193、195號","lat":25.006228,"lng":121.4724311},"139":{"store":"屈臣氏","store_name":"中連門市","address":"新北市中和區中和路1號","lat":25.002351,"lng":121.499677},"140":{"store":"屈臣氏","store_name":"宜安門市","address":"新北市中和區宜安路148號","lat":24.9986548,"lng":121.5095195},"141":{"store":"屈臣氏","store_name":"員山門市","address":"新北市中和區員山路198號B1-2F","lat":25.0005554,"lng":121.4814202},"142":{"store":"屈臣氏","store_name":"莒光2門市","address":"新北市中和區莒光路127號1-2樓","lat":25.001995,"lng":121.472582},"143":{"store":"屈臣氏","store_name":"連城門市","address":"新北市中和區連城路351號1-2樓","lat":24.9960472,"lng":121.4879735},"144":{"store":"屈臣氏","store_name":"華新門市","address":"新北市中和區華新街95、97號1-2F","lat":24.9830807,"lng":121.5087682},"145":{"store":"屈臣氏","store_name":"中和門市","address":"新北市中和區興南路一段47號","lat":24.9903907,"lng":121.510897},"146":{"store":"屈臣氏","store_name":"五股門市","address":"新北市五股區工商路80號、82號1-2F","lat":25.0850978,"lng":121.4382578},"147":{"store":"屈臣氏","store_name":"中山門市","address":"新北市永和區中山路一段212號","lat":25.0085169,"lng":121.508421},"148":{"store":"屈臣氏","store_name":"新智光門市","address":"新北市永和區中正路101號1樓","lat":24.9974268,"lng":121.5154612},"149":{"store":"屈臣氏","store_name":"永安門市","address":"新北市永和區中和路515號","lat":25.0025803,"lng":121.5108587},"150":{"store":"屈臣氏","store_name":"中興門市","address":"新北市永和區中興街91號1-2F","lat":25.0120247,"lng":121.517579},"151":{"store":"屈臣氏","store_name":"秀山門市","address":"新北市永和區民權路53號","lat":24.9966159,"lng":121.5203165},"152":{"store":"屈臣氏","store_name":"樂華門市","address":"新北市永和區永和路一段164、166號","lat":25.0086725,"lng":121.5142557},"153":{"store":"屈臣氏","store_name":"永和門市","address":"新北市永和區永和路二段209號","lat":25.0138409,"lng":121.5153361},"154":{"store":"屈臣氏","store_name":"竹林門市","address":"新北市永和區竹林路231號","lat":25.0083833,"lng":121.5209887},"155":{"store":"屈臣氏","store_name":"得和門市","address":"新北市永和區得和路399號","lat":24.9992943,"lng":121.5255235},"156":{"store":"屈臣氏","store_name":"汐止門市","address":"新北市汐止區中興路168號","lat":25.0656103,"lng":121.6318276},"157":{"store":"屈臣氏","store_name":"汐止2門市","address":"新北市汐止區忠孝東路267、269號1-2F","lat":25.0680315,"lng":121.6633105},"158":{"store":"屈臣氏","store_name":"新台五門市","address":"新北市汐止區新台五路一段161號1-2F","lat":25.06274,"lng":121.65415},"159":{"store":"屈臣氏","store_name":"汐科門市","address":"新北市汐止區新台五路一段93號(iFG遠雄購物中心B1)","lat":25.0621343,"lng":121.6496852},"160":{"store":"屈臣氏","store_name":"林口門市","address":"新北市林口區中正路103號","lat":25.0772092,"lng":121.3940435},"161":{"store":"屈臣氏","store_name":"林口二門市","address":"新北市林口區文化二路一段152號","lat":25.0712685,"lng":121.3683306},"162":{"store":"屈臣氏","store_name":"長壽門市","address":"新北市板橋區三民路二段97、99號B1-1樓","lat":25.0161943,"lng":121.47958},"163":{"store":"屈臣氏","store_name":"板中門市","address":"新北市板橋區中山路一段19號1-2F","lat":25.0084809,"lng":121.4599491},"164":{"store":"屈臣氏","store_name":"埔墘門市","address":"新北市板橋區中山路二段188號","lat":25.017444,"lng":121.477502},"165":{"store":"屈臣氏","store_name":"板七門市","address":"新北市板橋區中正路222號","lat":25.0184661,"lng":121.4558834},"166":{"store":"屈臣氏","store_name":"陽明門市","address":"新北市板橋區文化路一段280號","lat":25.021312,"lng":121.467335},"167":{"store":"屈臣氏","store_name":"板文門市","address":"新北市板橋區文化路一段411號","lat":25.0224099,"lng":121.4672421},"168":{"store":"屈臣氏","store_name":"亞東門市","address":"新北市板橋區四川路二段51號、47巷2號1F、51號2F","lat":24.9950999,"lng":121.4538751},"169":{"store":"屈臣氏","store_name":"四維門市","address":"新北市板橋區四維路257號","lat":25.0279341,"lng":121.4634394},"170":{"store":"屈臣氏","store_name":"民治門市","address":"新北市板橋區民治街123號1樓","lat":25.030844,"lng":121.478186},"171":{"store":"屈臣氏","store_name":"四川門市","address":"新北市板橋區忠孝路25、27號","lat":25.002078,"lng":121.460521},"172":{"store":"屈臣氏","store_name":"南雅門市","address":"新北市板橋區南雅南路一段27號1F","lat":25.0066739,"lng":121.4563155},"173":{"store":"屈臣氏","store_name":"莒光門市","address":"新北市板橋區莒光路33號1-4F","lat":25.0246845,"lng":121.4703757},"174":{"store":"屈臣氏","store_name":"新海門市","address":"新北市板橋區新海路150號","lat":25.0238291,"lng":121.4606365},"175":{"store":"屈臣氏","store_name":"金山門市","address":"新北市金山區中山路228、230號1-2F","lat":25.2221354,"lng":121.6370691},"176":{"store":"屈臣氏","store_name":"泰仁門市","address":"新北市泰山區仁愛路83號","lat":25.0556913,"lng":121.4333974},"177":{"store":"屈臣氏","store_name":"泰山門市","address":"新北市泰山區明志路三段184號","lat":25.0388351,"lng":121.4241042},"178":{"store":"屈臣氏","store_name":"泰林門市","address":"新北市泰山區泰林路二段185號","lat":25.0610447,"lng":121.4333523},"179":{"store":"屈臣氏","store_name":"淡海門市","address":"新北市淡水區中山北路一段48號","lat":25.1755151,"lng":121.4419204},"180":{"store":"屈臣氏","store_name":"淡三門市","address":"新北市淡水區中正路77、79號1-2F","lat":25.1696245,"lng":121.4406697},"181":{"store":"屈臣氏","store_name":"淡明門市","address":"新北市淡水區公明街48號1樓","lat":25.168909,"lng":121.443082},"182":{"store":"屈臣氏","store_name":"淡江門市","address":"新北市淡水區北新路182巷5號","lat":25.1780856,"lng":121.4493318},"183":{"store":"屈臣氏","store_name":"竹圍門市","address":"新北市淡水區民族路10號","lat":25.1367486,"lng":121.4605096},"184":{"store":"屈臣氏","store_name":"淡水門市","address":"新北市淡水區英專路46號","lat":25.170528,"lng":121.445779},"185":{"store":"屈臣氏","store_name":"深坑門市","address":"新北市深坑區北深路三段177號","lat":25.0035853,"lng":121.6015955},"186":{"store":"屈臣氏","store_name":"新店門市","address":"新北市新店區中正路156號","lat":24.9718387,"lng":121.5415739},"187":{"store":"屈臣氏","store_name":"耕莘門市","address":"新北市新店區中正路348號B1~3F","lat":24.9752863,"lng":121.5363945},"188":{"store":"屈臣氏","store_name":"文中門市","address":"新北市新店區文中路8號B1-3F","lat":24.9568349,"lng":121.537623},"189":{"store":"屈臣氏","store_name":"七張門市","address":"新北市新店區北新路二段65號","lat":24.9734544,"lng":121.5427032},"190":{"store":"屈臣氏","store_name":"北新門市","address":"新北市新店區北新路三段77號","lat":24.9814069,"lng":121.5413819},"191":{"store":"屈臣氏","store_name":"大坪林門市","address":"新北市新店區民權路55號","lat":24.9828088,"lng":121.5395596},"192":{"store":"屈臣氏","store_name":"安康門市","address":"新北市新店區安康路二段198、198-1號1-2F","lat":24.9597987,"lng":121.5105417},"193":{"store":"屈臣氏","store_name":"中平門市","address":"新北市新莊區中平路87巷1號B1-2F","lat":25.0454713,"lng":121.4447484},"194":{"store":"屈臣氏","store_name":"輔仁門市","address":"新北市新莊區中正路516-2號","lat":25.0324809,"lng":121.433362},"195":{"store":"屈臣氏","store_name":"新和門市","address":"新北市新莊區中和街2號","lat":25.0429016,"lng":121.4486187},"196":{"store":"屈臣氏","store_name":"中港門市","address":"新北市新莊區中港路297號","lat":25.0443389,"lng":121.4528114},"197":{"store":"屈臣氏","store_name":"五權店門市","address":"新北市新莊區五權一路48號1-3F","lat":25.065724,"lng":121.4578721},"198":{"store":"屈臣氏","store_name":"五權門市","address":"新北市新莊區五權一路48號1-3F","lat":25.065724,"lng":121.4578721},"199":{"store":"屈臣氏","store_name":"民安門市","address":"新北市新莊區民安路188巷6號","lat":25.0235216,"lng":121.4250617},"200":{"store":"屈臣氏","store_name":"新福門市","address":"新北市新莊區幸福路524號","lat":25.049461,"lng":121.4560542},"201":{"store":"屈臣氏","store_name":"幸福門市","address":"新北市新莊區幸福路700號1-2F","lat":25.0493625,"lng":121.4499688},"202":{"store":"屈臣氏","store_name":"富國門市","address":"新北市新莊區富國路26號1-2F","lat":25.0263055,"lng":121.4185865},"203":{"store":"屈臣氏","store_name":"新莊門市","address":"新北市新莊區新泰路132號","lat":25.0367365,"lng":121.4481768},"204":{"store":"屈臣氏","store_name":"新泰二門市","address":"新北市新莊區新泰路55號","lat":25.0339559,"lng":121.449209},"205":{"store":"屈臣氏","store_name":"瑞芳門市","address":"新北市瑞芳區明燈路三段62號","lat":25.1080676,"lng":121.8067691},"206":{"store":"屈臣氏","store_name":"樹一門市","address":"新北市樹林區中山路一段35-1號","lat":24.992607,"lng":121.424247},"207":{"store":"屈臣氏","store_name":"樹林門市","address":"新北市樹林區中山路一段35-1號","lat":24.992607,"lng":121.424247},"208":{"store":"屈臣氏","store_name":"樹林3門市","address":"新北市樹林區中華路267號","lat":24.980387,"lng":121.417871},"209":{"store":"屈臣氏","store_name":"樹二門市","address":"新北市樹林區博愛一街9號","lat":24.9910309,"lng":121.4252858},"210":{"store":"屈臣氏","store_name":"溪漧門市","address":"新北市蘆洲區三民路75、77號1-2F","lat":25.0838852,"lng":121.4748683},"211":{"store":"屈臣氏","store_name":"民族門市","address":"新北市蘆洲區民族路59、61號1-2F","lat":25.0856896,"lng":121.4788819},"212":{"store":"屈臣氏","store_name":"光華門市","address":"新北市蘆洲區光華路38號1-3F","lat":25.0832679,"lng":121.469036},"213":{"store":"屈臣氏","store_name":"蘆洲門市","address":"新北市蘆洲區長安街138號","lat":25.0821595,"lng":121.4602728},"214":{"store":"屈臣氏","store_name":"長榮門市","address":"新北市蘆洲區長榮路25號","lat":25.082468,"lng":121.463185},"215":{"store":"屈臣氏","store_name":"得勝門市","address":"新北市蘆洲區得勝街157號","lat":25.0829725,"lng":121.4715165},"216":{"store":"屈臣氏","store_name":"鶯歌門市","address":"新北市鶯歌區建國路158號1-3F","lat":24.9537119,"lng":121.350687},"217":{"store":"屈臣氏","store_name":"八德門市","address":"桃園市八德區介壽路一段950、952號","lat":24.9585249,"lng":121.2992169},"218":{"store":"屈臣氏","store_name":"介壽門市","address":"桃園市八德區介壽路二段1068號1樓","lat":24.931875,"lng":121.2971262},"219":{"store":"屈臣氏","store_name":"桃鶯門市","address":"桃園市八德區桃鶯路53號1-3F","lat":24.9709808,"lng":121.3273131},"220":{"store":"屈臣氏","store_name":"大園門市","address":"桃園市大園區中正東路12、14號","lat":25.0640071,"lng":121.1981081},"221":{"store":"屈臣氏","store_name":"崎頂門市","address":"桃園市大溪區介壽路848號、848-1號","lat":24.9008268,"lng":121.283692},"222":{"store":"屈臣氏","store_name":"大溪門市","address":"桃園市大溪區慈湖路22號","lat":24.8837255,"lng":121.2891669},"223":{"store":"屈臣氏","store_name":"中原2門市","address":"桃園市中壢區中山東路二段26號1-2F","lat":24.9540577,"lng":121.2375215},"224":{"store":"屈臣氏","store_name":"來來門市","address":"桃園市中壢區中山路118號B1-1F","lat":24.9555769,"lng":121.2255803},"225":{"store":"屈臣氏","store_name":"壢運門市","address":"桃園市中壢區中正路99、101號1-2F","lat":24.9547361,"lng":121.223002},"226":{"store":"屈臣氏","store_name":"內壢門市","address":"桃園市中壢區中華路一段209、211號","lat":24.9731723,"lng":121.2593182},"227":{"store":"屈臣氏","store_name":"大江門市","address":"桃園市中壢區中園路二段509號B1F","lat":25.0015719,"lng":121.2286538},"228":{"store":"屈臣氏","store_name":"中原門市","address":"桃園市中壢區日新路82號","lat":24.9549831,"lng":121.2399894},"229":{"store":"屈臣氏","store_name":"壢春門市","address":"桃園市中壢區長春路1號1-2樓","lat":24.9790622,"lng":121.2505161},"230":{"store":"屈臣氏","store_name":"健行門市","address":"桃園市中壢區健行路200號及200之1號1樓","lat":24.9480099,"lng":121.2278568},"231":{"store":"屈臣氏","store_name":"海華門市","address":"桃園市中壢區慈惠三街156號B1-4F","lat":24.9649221,"lng":121.2259678},"232":{"store":"屈臣氏","store_name":"壢新門市","address":"桃園市中壢區新生路182號","lat":24.9613151,"lng":121.2230639},"233":{"store":"屈臣氏","store_name":"中三門市","address":"桃園市中壢區新生路40號","lat":24.9580564,"lng":121.2225547},"234":{"store":"屈臣氏","store_name":"新明門市","address":"桃園市中壢區新明路41號","lat":24.9581886,"lng":121.2144563},"235":{"store":"屈臣氏","store_name":"福州門市","address":"桃園市中壢區福州一街250號、252號1樓","lat":24.9673094,"lng":121.233078},"236":{"store":"屈臣氏","store_name":"龍岡門市","address":"桃園市中壢區龍東路219號","lat":24.93037,"lng":121.2535201},"237":{"store":"屈臣氏","store_name":"環東門市","address":"桃園市中壢區環中東路216號","lat":24.9630477,"lng":121.2560996},"238":{"store":"屈臣氏","store_name":"新大有門市","address":"桃園市桃園區大有路511號","lat":25.0142909,"lng":121.3174854},"239":{"store":"屈臣氏","store_name":"大興西門市","address":"桃園市桃園區大興西路二段39號1-2樓","lat":25.011543,"lng":121.2990423},"240":{"store":"屈臣氏","store_name":"中山東門市","address":"桃園市桃園區中山東路32-4號B1-2樓","lat":24.995822,"lng":121.3147594},"241":{"store":"屈臣氏","store_name":"桃中門市","address":"桃園市桃園區中平路及中州街84號、84-1號及121號","lat":24.9882244,"lng":121.2925517},"242":{"store":"屈臣氏","store_name":"桃園門市","address":"桃園市桃園區中正路146、148號","lat":24.994039,"lng":121.3115934},"243":{"store":"屈臣氏","store_name":"北埔門市","address":"桃園市桃園區中正路513號1-4F","lat":25.0027482,"lng":121.3057613},"244":{"store":"屈臣氏","store_name":"中正門市","address":"桃園市桃園區中正路54號","lat":24.991103,"lng":121.3128626},"245":{"store":"屈臣氏","store_name":"南門門市","address":"桃園市桃園區南華街107、109號1-2F","lat":24.991616,"lng":121.307677},"246":{"store":"屈臣氏","store_name":"桃鶯2門市","address":"桃園市桃園區桃鶯路253、255號B1-1F","lat":24.983835,"lng":121.3187132},"247":{"store":"屈臣氏","store_name":"桃購門市","address":"桃園市桃園區經國路369號B1","lat":25.0159488,"lng":121.3050123},"248":{"store":"屈臣氏","store_name":"縣府門市","address":"桃園市桃園區縣府路314、316號1-2F","lat":24.9925799,"lng":121.300166},"249":{"store":"屈臣氏","store_name":"新龍安門市","address":"桃園市桃園區龍安街140號","lat":24.9907699,"lng":121.2798793},"250":{"store":"屈臣氏","store_name":"新屋門市","address":"桃園市新屋區中山路235號","lat":24.9725577,"lng":121.106773},"251":{"store":"屈臣氏","store_name":"楊梅門市","address":"桃園市楊梅區大成路109號","lat":24.9105185,"lng":121.145552},"252":{"store":"屈臣氏","store_name":"埔心門市","address":"桃園市楊梅區中興路34、36號B1-3F","lat":24.9184798,"lng":121.1841591},"253":{"store":"屈臣氏","store_name":"龍潭門市","address":"桃園市龍潭區中正路110號","lat":24.8672393,"lng":121.2159676},"254":{"store":"屈臣氏","store_name":"龍興門市","address":"桃園市龍潭區中興路279號1-2樓","lat":24.8740404,"lng":121.2343261},"255":{"store":"屈臣氏","store_name":"龜山門市","address":"桃園市龜山區中興路431-2、433號1-4F","lat":24.9933058,"lng":121.3367076},"256":{"store":"屈臣氏","store_name":"長庚大門市","address":"桃園市龜山區文化一路259號","lat":25.0334238,"lng":121.3874884},"257":{"store":"屈臣氏","store_name":"長庚門市","address":"桃園市龜山區復興一路80號","lat":25.0595945,"lng":121.3684706},"258":{"store":"屈臣氏","store_name":"林口環門市","address":"桃園市龜山區復興一路8號1樓(環球購物中心)","lat":25.060604,"lng":121.3700716},"259":{"store":"屈臣氏","store_name":"龍華門市","address":"桃園市龜山區萬壽路一段298號1-2F","lat":25.0174963,"lng":121.402973},"260":{"store":"屈臣氏","store_name":"奉化門市","address":"桃園市蘆竹區奉化路75號1樓","lat":25.0402404,"lng":121.2876322},"261":{"store":"屈臣氏","store_name":"南竹門市","address":"桃園市蘆竹區南竹路一段60號","lat":25.0472307,"lng":121.2917499},"262":{"store":"屈臣氏","store_name":"南崁門市","address":"桃園市蘆竹區南崁路200號1-3F","lat":25.048281,"lng":121.294018},"263":{"store":"屈臣氏","store_name":"新台茂門市","address":"桃園市蘆竹區南崁路一段112號5樓","lat":25.0536603,"lng":121.2885645},"264":{"store":"屈臣氏","store_name":"觀音門市","address":"桃園市觀音區大觀路二段163號B1-2F","lat":25.0459217,"lng":121.1412889},"265":{"store":"屈臣氏","store_name":"水田門市","address":"新竹市北區水田街111號","lat":24.8159478,"lng":120.9681697},"266":{"store":"屈臣氏","store_name":"北大門市","address":"新竹市北區西大路558號","lat":24.8061286,"lng":120.9626141},"267":{"store":"屈臣氏","store_name":"站前門市","address":"新竹市東區中正路5號","lat":24.8028147,"lng":120.9711809},"268":{"store":"屈臣氏","store_name":"新竹門市","address":"新竹市東區文昌街6號","lat":24.8039861,"lng":120.969676},"269":{"store":"屈臣氏","store_name":"新民門市","address":"新竹市東區民生路194號","lat":24.811425,"lng":120.976359},"270":{"store":"屈臣氏","store_name":"竹光門市","address":"新竹市東區光復路一段180號","lat":24.781852,"lng":121.022349},"271":{"store":"屈臣氏","store_name":"園區門市","address":"新竹市東區光復路一段526號","lat":24.7863614,"lng":121.0112402},"272":{"store":"屈臣氏","store_name":"清華門市","address":"新竹市東區光復路二段338號","lat":24.7960116,"lng":120.9981779},"273":{"store":"屈臣氏","store_name":"竹科門市","address":"新竹市東區金山街21、23號","lat":24.7781634,"lng":121.0201838},"274":{"store":"屈臣氏","store_name":"南大門市","address":"新竹市東區南大路317、319號1-2F","lat":24.7978314,"lng":120.9702367},"275":{"store":"屈臣氏","store_name":"香山門市","address":"新竹市香山區經國路三段31號","lat":24.7998121,"lng":120.9538435},"276":{"store":"屈臣氏","store_name":"竹燦門市","address":"新竹縣竹北市三民路423、425號1-2F","lat":24.8346945,"lng":121.0089372},"277":{"store":"屈臣氏","store_name":"中正西門市","address":"新竹縣竹北市中正西路19號1-3樓","lat":24.8398673,"lng":121.0024963},"278":{"store":"屈臣氏","store_name":"縣政門市","address":"新竹縣竹北市光明六路89號1樓","lat":24.8264277,"lng":121.0090337},"279":{"store":"屈臣氏","store_name":"竹勝門市","address":"新竹縣竹北市勝利二路38號","lat":24.8230161,"lng":121.0250009},"280":{"store":"屈臣氏","store_name":"新竹北門市","address":"新竹縣竹北市博愛街359號","lat":24.8364572,"lng":121.0084059},"281":{"store":"屈臣氏","store_name":"竹東門市","address":"新竹縣竹東鎮東寧路三段103、105號","lat":24.7390468,"lng":121.0862492},"282":{"store":"屈臣氏","store_name":"湖口門市","address":"新竹縣湖口鄉中正路一段19號","lat":24.902657,"lng":121.044784},"283":{"store":"屈臣氏","store_name":"湖中門市","address":"新竹縣湖口鄉中華路108&110號","lat":24.8744556,"lng":121.0116318},"284":{"store":"屈臣氏","store_name":"新新埔門市","address":"新竹縣新埔鎮中正路217號1樓","lat":24.827484,"lng":121.080478},"285":{"store":"屈臣氏","store_name":"新豐門市","address":"新竹縣新豐鄉建興路一段19號1-2F","lat":24.8703531,"lng":120.9958727},"286":{"store":"屈臣氏","store_name":"關西門市","address":"新竹縣關西鎮中興路14號1-3F","lat":24.792397,"lng":121.17697},"287":{"store":"屈臣氏","store_name":"公館門市","address":"苗栗縣公館鄉大同路154、156號","lat":24.5019944,"lng":120.8282755},"288":{"store":"屈臣氏","store_name":"竹南門市","address":"苗栗縣竹南鎮博愛街73號","lat":24.686568,"lng":120.876849},"289":{"store":"屈臣氏","store_name":"後龍門市","address":"苗栗縣後龍鎮中北街70-3、70-4號1-2F","lat":24.6154024,"lng":120.7879546},"290":{"store":"屈臣氏","store_name":"苗農門市","address":"苗栗縣苗栗市中正路336號","lat":24.5624732,"lng":120.8232204},"291":{"store":"屈臣氏","store_name":"苗栗門市","address":"苗栗縣苗栗市光復路45巷1號","lat":24.5530365,"lng":120.8163326},"292":{"store":"屈臣氏","store_name":"新苑裡門市","address":"苗栗縣苑裡鎮中山路123號","lat":24.4417774,"lng":120.6508514},"293":{"store":"屈臣氏","store_name":"通霄門市","address":"苗栗縣通霄鎮中正路82號","lat":24.4908307,"lng":120.6793464},"294":{"store":"屈臣氏","store_name":"頭份門市","address":"苗栗縣頭份市中正路159號","lat":24.6867363,"lng":120.9101039},"295":{"store":"屈臣氏","store_name":"大甲門市","address":"台中市大甲區蔣公路7、9號","lat":24.344502,"lng":120.626056},"296":{"store":"屈臣氏","store_name":"大肚門市","address":"台中市大肚區沙田路二段753號","lat":24.15372,"lng":120.5443801},"297":{"store":"屈臣氏","store_name":"大里門市","address":"台中市大里區中興路二段470、472、474號1-2F","lat":24.1097745,"lng":120.6900498},"298":{"store":"屈臣氏","store_name":"仁化門市","address":"台中市大里區仁化路563號1-3F","lat":24.0964495,"lng":120.6990659},"299":{"store":"屈臣氏","store_name":"新塗城門市","address":"台中市大里區成功路536號1-2樓","lat":24.0909523,"lng":120.7034369},"300":{"store":"屈臣氏","store_name":"大買家門市","address":"台中市大里區國光路二段710號2F","lat":24.115245,"lng":120.679626},"301":{"store":"屈臣氏","store_name":"大雅門市","address":"台中市大雅區中清東路197號","lat":24.2241191,"lng":120.6474394},"302":{"store":"屈臣氏","store_name":"中站門市","address":"台中市中區台灣大道一段25號1-3F","lat":24.1382709,"lng":120.6841244},"303":{"store":"屈臣氏","store_name":"台中門市","address":"台中市中區繼光街88、90號1-2F","lat":24.138787,"lng":120.682728},"304":{"store":"屈臣氏","store_name":"勤益門市","address":"台中市太平區中山路一段215巷1、3號1-2F","lat":24.14264,"lng":120.7331241},"305":{"store":"屈臣氏","store_name":"新平門市","address":"台中市太平區中山路三段121號","lat":24.1485556,"lng":120.7163617},"306":{"store":"屈臣氏","store_name":"太二門市","address":"台中市太平區中興路121號1-3F","lat":24.1266739,"lng":120.714937},"307":{"store":"屈臣氏","store_name":"太平門市","address":"台中市太平區太平路472-1號","lat":24.1248909,"lng":120.715005},"308":{"store":"屈臣氏","store_name":"水湳門市","address":"台中市北屯區中清路36-7、38號1-2F","lat":24.1774311,"lng":120.669499},"309":{"store":"屈臣氏","store_name":"昌平門市","address":"台中市北屯區昌平路一段157、159號1-3F","lat":24.1764431,"lng":120.6902587},"310":{"store":"屈臣氏","store_name":"東山門市","address":"台中市北屯區東山路一段250號","lat":24.1755572,"lng":120.7182224},"311":{"store":"屈臣氏","store_name":"崇德2門市","address":"台中市北屯區崇德二路一段97號","lat":24.1759969,"lng":120.6969141},"312":{"store":"屈臣氏","store_name":"崇德門市","address":"台中市北屯區崇德路二段65號","lat":24.170744,"lng":120.685158},"313":{"store":"屈臣氏","store_name":"三民門市","address":"台中市北區三民路三段92-3號","lat":24.1489158,"lng":120.6839307},"314":{"store":"屈臣氏","store_name":"學士門市","address":"台中市北區健行路449-1號1樓","lat":24.159005,"lng":120.679693},"315":{"store":"屈臣氏","store_name":"漢口門市","address":"台中市北區漢口路三段184、186號1-4F","lat":24.1668152,"lng":120.6723975},"316":{"store":"屈臣氏","store_name":"后里門市","address":"台中市后里區甲后路一段447號1-2F","lat":24.3088308,"lng":120.7220706},"317":{"store":"屈臣氏","store_name":"永福門市","address":"台中市西屯區永福路137號1-2F","lat":24.1846079,"lng":120.620738},"318":{"store":"屈臣氏","store_name":"西屯門市","address":"台中市西屯區西屯路二段16-1號1-2F","lat":24.1637936,"lng":120.6620042},"319":{"store":"屈臣氏","store_name":"文華門市","address":"台中市西屯區西屯路二段269-50號1-2F","lat":24.174544,"lng":120.6443052},"320":{"store":"屈臣氏","store_name":"青海門市","address":"台中市西屯區青海路一段174號1-2F","lat":24.1656536,"lng":120.6528168},"321":{"store":"屈臣氏","store_name":"特易發門市","address":"台中市西屯區青海路二段207-18號B1","lat":24.1704719,"lng":120.6448736},"322":{"store":"屈臣氏","store_name":"逢甲門市","address":"台中市西屯區福星路427號","lat":24.1789415,"lng":120.6453692},"323":{"store":"屈臣氏","store_name":"精誠二門市","address":"台中市西屯區精誠路18號","lat":24.1570871,"lng":120.6569623},"324":{"store":"屈臣氏","store_name":"公益門市","address":"台中市西區公益路175號","lat":24.1507013,"lng":120.6614259},"325":{"store":"屈臣氏","store_name":"向上門市","address":"台中市西區向上路一段459號1樓","lat":24.1466288,"lng":120.6535738},"326":{"store":"屈臣氏","store_name":"美村二門市","address":"台中市西區美村路一段22號","lat":24.1547147,"lng":120.6617684},"327":{"store":"屈臣氏","store_name":"美村門市","address":"台中市西區美村路一段686號","lat":24.1352443,"lng":120.6615244},"328":{"store":"屈臣氏","store_name":"精誠門市","address":"台中市西區精誠路154號1-5F","lat":24.1524407,"lng":120.6549705},"329":{"store":"屈臣氏","store_name":"沙鹿門市","address":"台中市沙鹿區中山路246號","lat":24.237919,"lng":120.561383},"330":{"store":"屈臣氏","store_name":"沙田門市","address":"台中市沙鹿區中正街55、57號","lat":24.2363907,"lng":120.5591049},"331":{"store":"屈臣氏","store_name":"靜宜門市","address":"台中市沙鹿區台灣大道七段259號1-2樓","lat":24.2269345,"lng":120.575777},"332":{"store":"屈臣氏","store_name":"精武門市","address":"台中市東區精武東路105號","lat":24.1495079,"lng":120.7094522},"333":{"store":"屈臣氏","store_name":"東勢門市","address":"台中市東勢區豐勢路264號","lat":24.251944,"lng":120.830102},"334":{"store":"屈臣氏","store_name":"新大墩門市","address":"台中市南屯區大墩路556號","lat":24.1493602,"lng":120.6499596},"335":{"store":"屈臣氏","store_name":"嶺東門市","address":"台中市南屯區永春南路52號","lat":24.1385958,"lng":120.6118379},"336":{"store":"屈臣氏","store_name":"河南門市","address":"台中市南屯區河南路四段502號","lat":24.1470278,"lng":120.6381308},"337":{"store":"屈臣氏","store_name":"南屯門市","address":"台中市南屯區南屯路二段391號1-5F","lat":24.1381463,"lng":120.6437784},"338":{"store":"屈臣氏","store_name":"黎新門市","address":"台中市南屯區黎明路一段1010、1010-1號1-4F","lat":24.1384153,"lng":120.63766},"339":{"store":"屈臣氏","store_name":"黎明門市","address":"台中市南屯區黎明路二段417號1-2F","lat":24.1514829,"lng":120.6350563},"340":{"store":"屈臣氏","store_name":"復中門市","address":"台中市南區台中路64號B1-2F","lat":24.1340425,"lng":120.6830738},"341":{"store":"屈臣氏","store_name":"忠明門市","address":"台中市南區忠明南路797號","lat":24.1227295,"lng":120.6612046},"342":{"store":"屈臣氏","store_name":"美南門市","address":"台中市南區美村南路78、80號1-4F","lat":24.1161084,"lng":120.6669416},"343":{"store":"屈臣氏","store_name":"烏日門市","address":"台中市烏日區興祥街46、48號1-2F","lat":24.1063963,"lng":120.6385866},"344":{"store":"屈臣氏","store_name":"清水門市","address":"台中市清水區中山路126-7、126-8號","lat":24.268497,"lng":120.575422},"345":{"store":"屈臣氏","store_name":"潭子門市","address":"台中市潭子區勝利路213、215號1-3F","lat":24.2117235,"lng":120.7005024},"346":{"store":"屈臣氏","store_name":"東海門市","address":"台中市龍井區新興路2、2-1號","lat":24.1814297,"lng":120.5917989},"347":{"store":"屈臣氏","store_name":"豐原門市","address":"台中市豐原區中正路147號","lat":24.2515789,"lng":120.719794},"348":{"store":"屈臣氏","store_name":"向陽門市","address":"台中市豐原區向陽路269、271號1-3F","lat":24.251376,"lng":120.728233},"349":{"store":"屈臣氏","store_name":"豐功門市","address":"台中市豐原區成功路148&150號","lat":24.2446043,"lng":120.7100337},"350":{"store":"屈臣氏","store_name":"新霧峰門市","address":"台中市霧峰區中正路841、843號1-2樓","lat":24.063124,"lng":120.698271},"351":{"store":"屈臣氏","store_name":"二林門市","address":"彰化縣二林鎮中山路110號","lat":23.9000708,"lng":120.3676862},"352":{"store":"屈臣氏","store_name":"北斗門市","address":"彰化縣北斗鎮中華路261號1-5F","lat":23.872931,"lng":120.522118},"353":{"store":"屈臣氏","store_name":"田中門市","address":"彰化縣田中鎮中州路一段190號","lat":23.8580474,"lng":120.5868522},"354":{"store":"屈臣氏","store_name":"和美門市","address":"彰化縣和美鎮中山路163、165號","lat":24.1122604,"lng":120.4980825},"355":{"store":"屈臣氏","store_name":"社頭門市","address":"彰化縣社頭鄉社斗路一段205號1-4F","lat":23.8975033,"lng":120.5879295},"356":{"store":"屈臣氏","store_name":"花壇門市","address":"彰化縣花壇鄉中正路176號","lat":24.026898,"lng":120.542914},"357":{"store":"屈臣氏","store_name":"員中門市","address":"彰化縣員林市中正路197、199號1-2F","lat":23.9535787,"lng":120.5748387},"358":{"store":"屈臣氏","store_name":"員二門市","address":"彰化縣員林市民權街6、8號","lat":23.959647,"lng":120.571631},"359":{"store":"屈臣氏","store_name":"靜修門市","address":"彰化縣員林市靜修路52-19號1-2樓","lat":23.9624898,"lng":120.5690639},"360":{"store":"屈臣氏","store_name":"鹿港門市","address":"彰化縣鹿港鎮民族路99、101號","lat":24.055346,"lng":120.436128},"361":{"store":"屈臣氏","store_name":"溪湖門市","address":"彰化縣溪湖鎮彰水路三段298號","lat":23.9601883,"lng":120.4803001},"362":{"store":"屈臣氏","store_name":"彰二門市","address":"彰化縣彰化市永樂街2號","lat":24.0763932,"lng":120.5440002},"363":{"store":"屈臣氏","store_name":"旭光門市","address":"彰化縣彰化市旭光路255號","lat":24.070888,"lng":120.545007},"364":{"store":"屈臣氏","store_name":"彰化門市","address":"彰化縣彰化市和平路15號","lat":24.0789973,"lng":120.5401994},"365":{"store":"屈臣氏","store_name":"彰南門市","address":"彰化縣彰化市彰南路一段417號1-2F","lat":24.0858839,"lng":120.5760023},"366":{"store":"屈臣氏","store_name":"雲科門市","address":"雲林縣斗六市中山路300-1號","lat":23.7014041,"lng":120.5382038},"367":{"store":"屈臣氏","store_name":"斗六門市","address":"雲林縣斗六市民生路156號","lat":23.7115854,"lng":120.5419583},"368":{"store":"屈臣氏","store_name":"斗南門市","address":"雲林縣斗南鎮中山路70號1-3F","lat":23.675092,"lng":120.479567},"369":{"store":"屈臣氏","store_name":"北港門市","address":"雲林縣北港鎮民主路98、100號1-3F","lat":23.568718,"lng":120.3016034},"370":{"store":"屈臣氏","store_name":"西螺門市","address":"雲林縣西螺鎮中山路167、169號1-3F","lat":23.7999096,"lng":120.4596772},"371":{"store":"屈臣氏","store_name":"虎尾門市","address":"雲林縣虎尾鎮中正路141號","lat":23.7079005,"lng":120.4331913},"372":{"store":"屈臣氏","store_name":"麥寮門市","address":"雲林縣麥寮鄉中興路42號1-2F","lat":23.7511748,"lng":120.2516539},"373":{"store":"屈臣氏","store_name":"大林門市","address":"嘉義縣大林鎮中正路429、431號1-3F","lat":23.6029423,"lng":120.4539302},"374":{"store":"屈臣氏","store_name":"水上門市","address":"嘉義縣水上鄉中興路388號1-3F","lat":23.4309581,"lng":120.4005446},"375":{"store":"屈臣氏","store_name":"民雄門市","address":"嘉義縣民雄鄉昇平路1-1號","lat":23.5565152,"lng":120.4297894},"376":{"store":"屈臣氏","store_name":"朴子門市","address":"嘉義縣朴子市八德路10號1-2F","lat":23.4635533,"lng":120.2427535},"377":{"store":"屈臣氏","store_name":"嘉義2門市","address":"嘉義市西區中山路379、381、383號","lat":23.4796738,"lng":120.4479419},"378":{"store":"屈臣氏","store_name":"興業門市","address":"嘉義市西區仁愛路300號","lat":23.4713472,"lng":120.4427245},"379":{"store":"屈臣氏","store_name":"嘉樂門市","address":"嘉義市西區博愛路二段461號B1","lat":23.4713372,"lng":120.4317229},"380":{"store":"屈臣氏","store_name":"興業西門市","address":"嘉義市西區興業西路328號","lat":23.4679891,"lng":120.438247},"381":{"store":"屈臣氏","store_name":"嘉文門市","address":"嘉義市東區文化路116號","lat":23.4774112,"lng":120.4499667},"382":{"store":"屈臣氏","store_name":"吳鳳南門市","address":"嘉義市東區吳鳳南路300號1-4樓","lat":23.4565691,"lng":120.4586709},"383":{"store":"屈臣氏","store_name":"水里門市","address":"南投縣水里鄉民生路433號","lat":23.8178504,"lng":120.8535842},"384":{"store":"屈臣氏","store_name":"名間門市","address":"南投縣名間鄉南雅街100號1-2F","lat":23.8376575,"lng":120.7022395},"385":{"store":"屈臣氏","store_name":"竹山門市","address":"南投縣竹山鎮集山路三段959、961號1-3F","lat":23.755912,"lng":120.681935},"386":{"store":"屈臣氏","store_name":"南投門市","address":"南投縣南投市復興路137號1-2F","lat":23.9056566,"lng":120.6874923},"387":{"store":"屈臣氏","store_name":"南投2門市","address":"南投縣南投市彰南路二段26號1-3F","lat":23.9086873,"lng":120.6849626},"388":{"store":"屈臣氏","store_name":"埔里2門市","address":"南投縣埔里鎮中正路463號1樓","lat":23.9662985,"lng":120.965892},"389":{"store":"屈臣氏","store_name":"埔里門市","address":"南投縣埔里鎮南盛街120號","lat":23.9630794,"lng":120.9667624},"390":{"store":"屈臣氏","store_name":"草屯門市","address":"南投縣草屯鎮太平路二段262、264號","lat":23.9769549,"lng":120.684056},"391":{"store":"屈臣氏","store_name":"日月潭門市","address":"南投縣魚池鄉中山路121號B1-3F","lat":23.865713,"lng":120.912025},"392":{"store":"屈臣氏","store_name":"公園門市","address":"台南市中西區公園路32號","lat":22.9945154,"lng":120.2055826},"393":{"store":"屈臣氏","store_name":"南民門市","address":"台南市中西區民族路三段287號1-2樓","lat":22.9999991,"lng":120.192389},"394":{"store":"屈臣氏","store_name":"赤崁門市","address":"台南市中西區成功路211號1-2樓","lat":22.9983543,"lng":120.2048421},"395":{"store":"屈臣氏","store_name":"金華2門市","address":"台南市中西區金華路三段88號1-2樓","lat":22.9906736,"lng":120.1927552},"396":{"store":"屈臣氏","store_name":"南青門市","address":"台南市中西區青年路148號","lat":22.9916999,"lng":120.2095075},"397":{"store":"屈臣氏","store_name":"友愛門市","address":"台南市中西區國華街二段159號","lat":22.9919372,"lng":120.1970618},"398":{"store":"屈臣氏","store_name":"嘉南門市","address":"台南市仁德區二仁路一段165號&165-1號1樓","lat":22.9207246,"lng":120.2248681},"399":{"store":"屈臣氏","store_name":"仁德門市","address":"台南市仁德區中正路三段12、14號1-4F","lat":22.972059,"lng":120.2519729},"400":{"store":"屈臣氏","store_name":"六甲門市","address":"台南市六甲區中山路2號1-5F","lat":23.2309003,"lng":120.3513811},"401":{"store":"屈臣氏","store_name":"小北門市","address":"台南市北區公園路902-1號","lat":23.0145937,"lng":120.2131692},"402":{"store":"屈臣氏","store_name":"開元門市","address":"台南市北區開元路517號1樓","lat":23.0111193,"lng":120.2254508},"403":{"store":"屈臣氏","store_name":"大灣門市","address":"台南市永康區大灣路273號B1-2F","lat":23.0064001,"lng":120.2673447},"404":{"store":"屈臣氏","store_name":"崑山門市","address":"台南市永康區大灣路915號","lat":22.9992119,"lng":120.2543074},"405":{"store":"屈臣氏","store_name":"中山北門市","address":"台南市永康區中山北路31&33號","lat":23.0262696,"lng":120.2579429},"406":{"store":"屈臣氏","store_name":"中山南門市","address":"台南市永康區中山南路237號1樓","lat":23.0157652,"lng":120.2359869},"407":{"store":"屈臣氏","store_name":"永康門市","address":"台南市永康區中正路988號","lat":23.0407462,"lng":120.2379846},"408":{"store":"屈臣氏","store_name":"永康2門市","address":"台南市永康區中華路201號","lat":23.004759,"lng":120.235082},"409":{"store":"屈臣氏","store_name":"復華門市","address":"台南市永康區復國一路317、319號1-5F","lat":23.0104286,"lng":120.2463787},"410":{"store":"屈臣氏","store_name":"白河門市","address":"台南市白河區中山路32-2號1-5F","lat":23.3482914,"lng":120.4147135},"411":{"store":"屈臣氏","store_name":"永華門市","address":"台南市安平區永華路二段815號","lat":22.9911172,"lng":120.168822},"412":{"store":"屈臣氏","store_name":"華平門市","address":"台南市安平區慶平路289號1~2樓","lat":22.9967243,"lng":120.1760235},"413":{"store":"屈臣氏","store_name":"安中門市","address":"台南市安南區安中路一段799號","lat":23.0441611,"lng":120.193242},"414":{"store":"屈臣氏","store_name":"本淵門市","address":"台南市安南區安中路三段416、418號1-3F","lat":23.0499502,"lng":120.1740737},"415":{"store":"屈臣氏","store_name":"和順門市","address":"台南市安南區安和路四段502號","lat":23.0610285,"lng":120.2188322},"416":{"store":"屈臣氏","store_name":"海佃門市","address":"台南市安南區海佃路一段162號1-3F","lat":23.0243281,"lng":120.1917824},"417":{"store":"屈臣氏","store_name":"佳里門市","address":"台南市佳里區義民街219、221號","lat":23.1612867,"lng":120.1755889},"418":{"store":"屈臣氏","store_name":"新北門門市","address":"台南市東區北門路一段294號","lat":22.9957854,"lng":120.2121332},"419":{"store":"屈臣氏","store_name":"光明門市","address":"台南市東區光明街14、16號1-2F","lat":22.9993742,"lng":120.2280912},"420":{"store":"屈臣氏","store_name":"成功門市","address":"台南市東區長榮路二段171號","lat":22.9919166,"lng":120.2213435},"421":{"store":"屈臣氏","store_name":"崇市門市","address":"台南市東區崇德路367號1-2F","lat":22.9767023,"lng":120.2239337},"422":{"store":"屈臣氏","store_name":"祟義門市","address":"台南市東區崇德路646號1-2F","lat":22.9699125,"lng":120.2274274},"423":{"store":"屈臣氏","store_name":"勝利門市","address":"台南市東區勝利路157號1-3F","lat":22.9955167,"lng":120.2179372},"424":{"store":"屈臣氏","store_name":"南西門門市","address":"台南市南區西門路一段665號","lat":22.9864998,"lng":120.1973989},"425":{"store":"屈臣氏","store_name":"金華門市","address":"台南市南區金華路二段87號","lat":22.9794247,"lng":120.1912394},"426":{"store":"屈臣氏","store_name":"麻豆門市","address":"台南市麻豆區興中路96號","lat":23.1835913,"lng":120.2509438},"427":{"store":"屈臣氏","store_name":"善化門市","address":"台南市善化區中正路440號1-3F","lat":23.1306391,"lng":120.2939979},"428":{"store":"屈臣氏","store_name":"新化門市","address":"台南市新化區信義路213-1號","lat":23.0349476,"lng":120.3086834},"429":{"store":"屈臣氏","store_name":"新市門市","address":"台南市新市區仁愛街318、320號1-2F","lat":23.0776131,"lng":120.2939809},"430":{"store":"屈臣氏","store_name":"新營門市","address":"台南市新營區延平路2號","lat":23.3022394,"lng":120.313562},"431":{"store":"屈臣氏","store_name":"學甲門市","address":"台南市學甲區濟生路142號1-4F","lat":23.2329547,"lng":120.1807694},"432":{"store":"屈臣氏","store_name":"歸仁門市","address":"台南市歸仁區中山路一段579、581號","lat":22.9664188,"lng":120.2959656},"433":{"store":"屈臣氏","store_name":"關廟門市","address":"台南市關廟區中山路一段640號","lat":22.9600006,"lng":120.327992},"434":{"store":"屈臣氏","store_name":"鹽水門市","address":"台南市鹽水區朝琴路41、43號1-2F","lat":23.3210459,"lng":120.2684835},"435":{"store":"屈臣氏","store_name":"大昌門市","address":"高雄市三民區大昌二路114號1-3F","lat":22.6433425,"lng":120.3322757},"436":{"store":"屈臣氏","store_name":"天祥門市","address":"高雄市三民區天祥一路171號","lat":22.667454,"lng":120.3188987},"437":{"store":"屈臣氏","store_name":"坎城門市","address":"高雄市三民區自由一路80號1-2F","lat":22.644541,"lng":120.308876},"438":{"store":"屈臣氏","store_name":"明哲門市","address":"高雄市三民區明哲路1號","lat":22.6610741,"lng":120.3138529},"439":{"store":"屈臣氏","store_name":"河北門市","address":"高雄市三民區河北二路110號","lat":22.6363091,"lng":120.29717},"440":{"store":"屈臣氏","store_name":"建工門市","address":"高雄市三民區建工路405號","lat":22.6520925,"lng":120.3293105},"441":{"store":"屈臣氏","store_name":"建興門市","address":"高雄市三民區建興路224號1-6F","lat":22.6447159,"lng":120.3248559},"442":{"store":"屈臣氏","store_name":"察哈爾門市","address":"高雄市三民區博愛一路225號","lat":22.647732,"lng":120.302911},"443":{"store":"屈臣氏","store_name":"高明門市","address":"高雄市三民區陽明路172、176號","lat":22.6415077,"lng":120.3419477},"444":{"store":"屈臣氏","store_name":"澄和門市","address":"高雄市三民區澄和路129號B1-2F","lat":22.6447332,"lng":120.3431127},"445":{"store":"屈臣氏","store_name":"灣中門市","address":"高雄市三民區灣中街341號","lat":22.6500486,"lng":120.3170201},"446":{"store":"屈臣氏","store_name":"大社門市","address":"高雄市大社區中山路365號","lat":22.7316058,"lng":120.3513153},"447":{"store":"屈臣氏","store_name":"大寮門市","address":"高雄市大寮區鳳林三路330號1-4F","lat":22.6020872,"lng":120.3975217},"448":{"store":"屈臣氏","store_name":"後庄門市","address":"高雄市大寮區鳳屏ㄧ路281號1樓","lat":22.6361154,"lng":120.391813},"449":{"store":"屈臣氏","store_name":"義大門市","address":"高雄市大樹區學城路一段12號","lat":22.7303876,"lng":120.402402},"450":{"store":"屈臣氏","store_name":"宏平門市","address":"高雄市小港區宏平路130號","lat":22.571125,"lng":120.363044},"451":{"store":"屈臣氏","store_name":"小港門市","address":"高雄市小港區漢民路283號","lat":22.567046,"lng":120.353599},"452":{"store":"屈臣氏","store_name":"仁忠門市","address":"高雄市仁武區仁忠路202號1樓","lat":22.6805315,"lng":120.3540889},"453":{"store":"屈臣氏","store_name":"仁武門市","address":"高雄市仁武區仁武村中正路190-1、192號1-2F","lat":22.7022328,"lng":120.3517993},"454":{"store":"屈臣氏","store_name":"左營門市","address":"高雄市左營區左營大路290、292號","lat":22.686066,"lng":120.291139},"455":{"store":"屈臣氏","store_name":"自由3門市","address":"高雄市左營區自由三路210號1-3樓","lat":22.6723576,"lng":120.3114406},"456":{"store":"屈臣氏","store_name":"右昌門市","address":"高雄市左營區後昌路651號","lat":22.7084081,"lng":120.2979745},"457":{"store":"屈臣氏","store_name":"崇高門市","address":"高雄市左營區崇德路385號1-4F","lat":22.6765909,"lng":120.30214},"458":{"store":"屈臣氏","store_name":"裕誠門市","address":"高雄市左營區裕誠路413號、415號","lat":22.6653404,"lng":120.3068149},"459":{"store":"屈臣氏","store_name":"岡山門市","address":"高雄市岡山區壽天路111號","lat":22.7945503,"lng":120.2911637},"460":{"store":"屈臣氏","store_name":"林園門市","address":"高雄市林園區東林西路29號","lat":22.503683,"lng":120.39512},"461":{"store":"屈臣氏","store_name":"新阿蓮門市","address":"高雄市阿蓮區中山路73號","lat":22.8794675,"lng":120.3287206},"462":{"store":"屈臣氏","store_name":"一心門市","address":"高雄市前鎮區一心二路45號","lat":22.6112006,"lng":120.3104868},"463":{"store":"屈臣氏","store_name":"大魯閣門市","address":"高雄市前鎮區中安路1-1號3樓","lat":22.5827767,"lng":120.3309121},"464":{"store":"屈臣氏","store_name":"文橫門市","address":"高雄市前鎮區文橫三路190號1-3F","lat":22.6142436,"lng":120.3071661},"465":{"store":"屈臣氏","store_name":"草衙門市","address":"高雄市前鎮區草衙二路393號1-3F","lat":22.578588,"lng":120.3223313},"466":{"store":"屈臣氏","store_name":"瑞北門市","address":"高雄市前鎮區瑞北路52號","lat":22.6093288,"lng":120.3348156},"467":{"store":"屈臣氏","store_name":"瑞隆門市","address":"高雄市前鎮區瑞隆路436號","lat":22.6055394,"lng":120.3295582},"468":{"store":"屈臣氏","store_name":"美濃門市","address":"高雄市美濃區中正路一段42號","lat":22.9005405,"lng":120.541598},"469":{"store":"屈臣氏","store_name":"建國門市","address":"高雄市苓雅區正義路136號1-2F","lat":22.6309309,"lng":120.3394381},"470":{"store":"屈臣氏","store_name":"漢神門市","address":"高雄市苓雅區成功一路239-6號1-2樓","lat":22.6186524,"lng":120.2957461},"471":{"store":"屈臣氏","store_name":"武廟門市","address":"高雄市苓雅區福德二路20之1號1-2F","lat":22.6306609,"lng":120.3280686},"472":{"store":"屈臣氏","store_name":"廣州門市","address":"高雄市苓雅區廣州一街141-3、141-4號","lat":22.6241064,"lng":120.3170362},"473":{"store":"屈臣氏","store_name":"興中門市","address":"高雄市苓雅區興中一路377號","lat":22.6162309,"lng":120.3064595},"474":{"store":"屈臣氏","store_name":"六合門市","address":"高雄市新興區六合一路94號","lat":22.6327126,"lng":120.3079534},"475":{"store":"屈臣氏","store_name":"六合發門市","address":"高雄市新興區六合二路14號","lat":22.6329143,"lng":120.301315},"476":{"store":"屈臣氏","store_name":"六合2門市","address":"高雄市新興區六合二路86號1樓","lat":22.6321609,"lng":120.2989266},"477":{"store":"屈臣氏","store_name":"新崛江門市","address":"高雄市新興區文橫二路149-1、151、151-1","lat":22.6229077,"lng":120.3036182},"478":{"store":"屈臣氏","store_name":"南華門市","address":"高雄市新興區林森一路166號1-3F","lat":22.6304202,"lng":120.3047392},"479":{"store":"屈臣氏","store_name":"楠梓門市","address":"高雄市楠梓區建楠路156號","lat":22.7271099,"lng":120.3266936},"480":{"store":"屈臣氏","store_name":"楠梓二門市","address":"高雄市楠梓區後昌路123號","lat":22.718468,"lng":120.310631},"481":{"store":"屈臣氏","store_name":"德民門市","address":"高雄市楠梓區德民路977號","lat":22.7202039,"lng":120.2882092},"482":{"store":"屈臣氏","store_name":"德賢門市","address":"高雄市楠梓區德賢路193、195號1-2F","lat":22.7263901,"lng":120.3059432},"483":{"store":"屈臣氏","store_name":"藍田門市","address":"高雄市楠梓區藍田路288號","lat":22.7277184,"lng":120.2904422},"484":{"store":"屈臣氏","store_name":"路竹門市","address":"高雄市路竹區大社路21、23號1-4F","lat":22.86264,"lng":120.2616},"485":{"store":"屈臣氏","store_name":"瑞豐門市","address":"高雄市鼓山區裕誠路1087、1087-1號1-2F","lat":22.6657252,"lng":120.2994695},"486":{"store":"屈臣氏","store_name":"旗山門市","address":"高雄市旗山區延平一路617號","lat":22.8854429,"lng":120.4832129},"487":{"store":"屈臣氏","store_name":"鳳山門市","address":"高雄市鳳山區中山路120-1號1-2F","lat":22.623166,"lng":120.357819},"488":{"store":"屈臣氏","store_name":"五甲門市","address":"高雄市鳳山區五甲二路690號","lat":22.5948014,"lng":120.3300573},"489":{"store":"屈臣氏","store_name":"青年門市","address":"高雄市鳳山區青年路二段389號1-4F","lat":22.642492,"lng":120.3513435},"490":{"store":"屈臣氏","store_name":"鳳松門市","address":"高雄市鳳山區經武路229號1-2樓","lat":22.6367923,"lng":120.3640164},"491":{"store":"屈臣氏","store_name":"華王門市","address":"高雄市鹽埕區五福四路55、57號","lat":22.62167,"lng":120.287183},"492":{"store":"屈臣氏","store_name":"內埔門市","address":"屏東縣內埔鄉廣濟路179、181號1-3F","lat":22.612917,"lng":120.566504},"493":{"store":"屈臣氏","store_name":"里港門市","address":"屏東縣里港鄉中山路49、51號1-3F","lat":22.7769301,"lng":120.4943399},"494":{"store":"屈臣氏","store_name":"枋寮門市","address":"屏東縣枋寮鄉中山路156號","lat":22.3644546,"lng":120.5967005},"495":{"store":"屈臣氏","store_name":"東港門市","address":"屏東縣東港鎮中山路59號","lat":22.4663592,"lng":120.4506468},"496":{"store":"屈臣氏","store_name":"屏東4門市","address":"屏東縣屏東市中山路65號","lat":22.676393,"lng":120.4847339},"497":{"store":"屈臣氏","store_name":"屏東門市","address":"屏東縣屏東市民生路301-1號","lat":22.6702187,"lng":120.4912147},"498":{"store":"屈臣氏","store_name":"屏生門市","address":"屏東縣屏東市民生路43號1&2樓","lat":22.6621915,"lng":120.5069521},"499":{"store":"屈臣氏","store_name":"屏師門市","address":"屏東縣屏東市林森路23-3號1-2F","lat":22.6712575,"lng":120.4978266},"500":{"store":"屈臣氏","store_name":"廣東門市","address":"屏東縣屏東市廣東路615、617號","lat":22.6846289,"lng":120.4969646},"501":{"store":"屈臣氏","store_name":"恆春門市","address":"屏東縣恆春鎮中正路75號1-2F","lat":22.0030436,"lng":120.7445337},"502":{"store":"屈臣氏","store_name":"墾丁門市","address":"屏東縣恆春鎮墾丁路212號1-2F","lat":21.9455575,"lng":120.7977839},"503":{"store":"屈臣氏","store_name":"高樹門市","address":"屏東縣高樹鄉南興路110號1-3F","lat":22.8234005,"lng":120.6017322},"504":{"store":"屈臣氏","store_name":"萬丹門市","address":"屏東縣萬丹鄉萬丹路一段176號","lat":22.5868094,"lng":120.4897405},"505":{"store":"屈臣氏","store_name":"潮州2門市","address":"屏東縣潮州鎮延平路98、100號1-4F","lat":22.5539839,"lng":120.5403725},"506":{"store":"屈臣氏","store_name":"潮州門市","address":"屏東縣潮州鎮新生路54號","lat":22.548652,"lng":120.538407},"507":{"store":"屈臣氏","store_name":"鹽埔門市","address":"屏東縣鹽埔鄉維新路109-2號","lat":22.740442,"lng":120.556659},"508":{"store":"屈臣氏","store_name":"宜蘭門市","address":"宜蘭縣宜蘭市中山路三段23、25號","lat":24.7558642,"lng":121.7521027},"509":{"store":"屈臣氏","store_name":"新月門市","address":"宜蘭縣宜蘭市民權路二段38巷6號","lat":24.7541808,"lng":121.7508165},"510":{"store":"屈臣氏","store_name":"神農門市","address":"宜蘭縣宜蘭市神農路一段79號1-2樓","lat":24.7487956,"lng":121.7500233},"511":{"store":"屈臣氏","store_name":"城東門市","address":"宜蘭縣宜蘭市舊城東路28-3號","lat":24.7568275,"lng":121.7562671},"512":{"store":"屈臣氏","store_name":"頭城門市","address":"宜蘭縣頭城鎮青雲路三段165、167號1-3F","lat":24.857309,"lng":121.824972},"513":{"store":"屈臣氏","store_name":"礁溪門市","address":"宜蘭縣礁溪鎮德陽路12號","lat":24.8282348,"lng":121.7725932},"514":{"store":"屈臣氏","store_name":"羅站門市","address":"宜蘭縣羅東鎮公正路66號和66-1號1-2樓","lat":24.6781674,"lng":121.7726973},"515":{"store":"屈臣氏","store_name":"羅民門市","address":"宜蘭縣羅東鎮民生路30號","lat":24.676989,"lng":121.769907},"516":{"store":"屈臣氏","store_name":"羅東門市","address":"宜蘭縣羅東鎮興東路6號1樓","lat":24.6758447,"lng":121.7678739},"517":{"store":"屈臣氏","store_name":"蘇澳門市","address":"宜蘭縣蘇澳鎮中山路一段78、80號1-2F","lat":24.5961423,"lng":121.851212},"518":{"store":"屈臣氏","store_name":"玉里門市","address":"花蓮縣玉里鎮中山路一段209號1-4F","lat":23.331572,"lng":121.3152834},"519":{"store":"屈臣氏","store_name":"吉安門市","address":"花蓮縣吉安鄉中華路二段340號","lat":23.9734169,"lng":121.5792206},"520":{"store":"屈臣氏","store_name":"花蓮門市","address":"花蓮縣花蓮市中山路209號","lat":23.9775003,"lng":121.6088682},"521":{"store":"屈臣氏","store_name":"花中門市","address":"花蓮縣花蓮市中山路551、553號1-4F","lat":23.9872262,"lng":121.6011724},"522":{"store":"屈臣氏","store_name":"美琪門市","address":"花蓮縣花蓮市中正路388號1-2F","lat":23.974608,"lng":121.603561},"523":{"store":"屈臣氏","store_name":"花中二門市","address":"花蓮縣花蓮市中正路541號","lat":23.9772252,"lng":121.6071368},"524":{"store":"屈臣氏","store_name":"台東門市","address":"台東縣台東市正氣路171、173、175號","lat":22.7523524,"lng":121.1517492},"525":{"store":"屈臣氏","store_name":"東欣門市","address":"台東縣台東市新生路195號1樓","lat":22.755537,"lng":121.1446293},"526":{"store":"屈臣氏","store_name":"澎湖門市","address":"澎湖縣馬公市中正路26號1-5F","lat":23.565044,"lng":119.5653151},"527":{"store":"屈臣氏","store_name":"北辰門市","address":"澎湖縣馬公市中華路59-2、59-3號1-2F","lat":23.5700704,"lng":119.5709626},"528":{"store":"屈臣氏","store_name":"金門門市","address":"金門縣金城鎮民生路35-2號35-3號","lat":24.4351923,"lng":118.319168},"529":{"store":"屈臣氏","store_name":"金門2門市","address":"金門縣金湖鎮中正路90號1-3樓","lat":24.4416618,"lng":118.4146181},"530":{"store":"美廉社","store_name":"士林士東店","address":"台北市士林區士東路91巷30號","lat":25.1132262,"lng":121.5296226},"531":{"store":"美廉社","store_name":"士林中山北店","address":"台北市士林區中山北路七段14巷32號","lat":25.1192289,"lng":121.533168},"532":{"store":"美廉社","store_name":"士林中正店","address":"台北市士林區中正路655巷17號1樓","lat":25.0853507,"lng":121.5080046},"533":{"store":"美廉社","store_name":"士林永平店","address":"台北市士林區永平街33號","lat":25.0906743,"lng":121.5049591},"534":{"store":"美廉社","store_name":"士林社子店","address":"台北市士林區社子街63巷27號1樓","lat":25.0885204,"lng":121.5069306},"535":{"store":"美廉社","store_name":"士林通河店","address":"台北市士林區通河街82號","lat":25.0809972,"lng":121.5203453},"536":{"store":"美廉社","store_name":"大同哈密店","address":"台北市大同區哈密街59巷56弄40號","lat":25.0752953,"lng":121.5146914},"537":{"store":"美廉社","store_name":"北市昌吉店","address":"台北市大同區昌吉街65號","lat":25.0660021,"lng":121.5146325},"538":{"store":"美廉社","store_name":"大安忠孝東店","address":"台北市大安區忠孝東路三段217巷2弄4號1樓","lat":25.0421671,"lng":121.5399281},"539":{"store":"美廉社","store_name":"大安樂業店","address":"台北市大安區樂業街141號","lat":25.0199402,"lng":121.5533255},"540":{"store":"美廉社","store_name":"北市和平店","address":"台北市大安區和平東路3段308巷15弄1號","lat":25.0199469,"lng":121.556219},"541":{"store":"美廉社","store_name":"中山民權東店","address":"台北市中山區民權東路二段71巷47號","lat":25.0644028,"lng":121.5318289},"542":{"store":"美廉社","store_name":"中山龍江店","address":"台北市中山區龍江路356巷58號","lat":25.065863,"lng":121.538684},"543":{"store":"美廉社","store_name":"北市五常店","address":"台北市中山區五常街47號1樓","lat":25.0644132,"lng":121.5392179},"544":{"store":"美廉社","store_name":"北市德惠店","address":"台北市中山區德惠街119號","lat":25.0667125,"lng":121.5298768},"545":{"store":"美廉社","store_name":"中正汀州店","address":"台北市中正區汀州路一段220號","lat":25.0276051,"lng":121.5097422},"546":{"store":"美廉社","store_name":"中正金門店","address":"台北市中正區金門街11號1樓","lat":25.0217693,"lng":121.5234298},"547":{"store":"美廉社","store_name":"中正惠安店","address":"台北市中正區惠安街21號1樓","lat":25.0295629,"lng":121.5068524},"548":{"store":"美廉社","store_name":"內湖大湖店","address":"台北市內湖區大湖山莊街219巷1號","lat":25.088255,"lng":121.5994675},"549":{"store":"美廉社","store_name":"內湖內湖二店","address":"台北市內湖區內湖路二段328號","lat":25.081497,"lng":121.588771},"550":{"store":"美廉社","store_name":"內湖內湖店","address":"台北市內湖區內湖路一段285巷65弄28號1樓","lat":25.0845259,"lng":121.568564},"551":{"store":"美廉社","store_name":"內湖文湖店","address":"台北市內湖區文湖路45號1樓","lat":25.086744,"lng":121.5619168},"552":{"store":"美廉社","store_name":"內湖文德店","address":"台北市內湖區文德路66巷63號","lat":25.0768463,"lng":121.5820282},"553":{"store":"美廉社","store_name":"內湖安泰店","address":"台北市內湖區安泰街12號","lat":25.0733201,"lng":121.6191137},"554":{"store":"美廉社","store_name":"內湖金龍店","address":"台北市內湖區內湖路三段104號1樓","lat":25.086662,"lng":121.590887},"555":{"store":"美廉社","store_name":"內湖康寧店","address":"台北市內湖區康寧路三段189巷21弄10號","lat":25.0709537,"lng":121.6127792},"556":{"store":"美廉社","store_name":"內湖新明店","address":"台北市內湖區新明路419號","lat":25.0549211,"lng":121.5811801},"557":{"store":"美廉社","store_name":"內湖麗山二店","address":"台北市內湖區麗山街68巷12號1樓","lat":25.0820165,"lng":121.5792383},"558":{"store":"美廉社","store_name":"內湖麗山店","address":"台北市內湖區麗山街348巷20號1樓","lat":25.0819912,"lng":121.574102},"559":{"store":"美廉社","store_name":"文山木新店","address":"台北市文山區木新路三段323號","lat":24.9805431,"lng":121.556574},"560":{"store":"美廉社","store_name":"文山忠順二店","address":"台北市文山區忠順街一段26巷12弄8號","lat":24.9834675,"lng":121.5588744},"561":{"store":"美廉社","store_name":"文山景華店","address":"台北市文山區景華街107號1樓","lat":24.9957459,"lng":121.546673},"562":{"store":"美廉社","store_name":"文山景福店","address":"台北市文山區景福街14號","lat":24.9995393,"lng":121.5391945},"563":{"store":"美廉社","store_name":"文山景豐店","address":"台北市文山區景豐街2巷10號","lat":24.9996527,"lng":121.5463919},"564":{"store":"美廉社","store_name":"文山新光店","address":"台北市文山區新光路一段69號","lat":24.990313,"lng":121.573853},"565":{"store":"美廉社","store_name":"文山萬安二店","address":"台北市文山區萬安街35號","lat":25.0005562,"lng":121.5708212},"566":{"store":"美廉社","store_name":"文山福興店","address":"台北市文山區福興路74號","lat":25.004096,"lng":121.550184},"567":{"store":"美廉社","store_name":"文山興隆二店","address":"台北市文山區興隆路2段220巷43號1樓","lat":25.0000741,"lng":121.5521269},"568":{"store":"美廉社","store_name":"文山興隆三店","address":"台北市文山區興隆路二段203巷2弄2號","lat":25.0011444,"lng":121.5496307},"569":{"store":"美廉社","store_name":"文山興隆店","address":"台北市文山區興隆路3段185巷3弄1號1樓","lat":24.9955086,"lng":121.5616313},"570":{"store":"美廉社","store_name":"北投中央南店","address":"台北市北投區中央南路一段133號","lat":25.130063,"lng":121.501179},"571":{"store":"美廉社","store_name":"北投中和店","address":"台北市北投區中和街499號","lat":25.1451624,"lng":121.4949194},"572":{"store":"美廉社","store_name":"北投公館店","address":"台北市北投區公館路215號","lat":25.127299,"lng":121.507741},"573":{"store":"美廉社","store_name":"北投石牌二店","address":"台北市北投區石牌路一段166巷101號1樓","lat":25.112208,"lng":121.5153345},"574":{"store":"美廉社","store_name":"北投石牌店","address":"台北市北投區石牌路二段342號","lat":25.122811,"lng":121.5248027},"575":{"store":"美廉社","store_name":"北投立農店","address":"台北市北投區立農街二段267號","lat":25.1189174,"lng":121.5148064},"576":{"store":"美廉社","store_name":"北投行義店","address":"台北市北投區行義路140巷7號","lat":25.129655,"lng":121.528305},"577":{"store":"美廉社","store_name":"北投知行店","address":"台北市北投區知行路225巷17號","lat":25.1200886,"lng":121.4660796},"578":{"store":"美廉社","store_name":"北投致遠店","address":"台北市北投區致遠一路1段94號","lat":25.1095113,"lng":121.5152968},"579":{"store":"美廉社","store_name":"北投振華店","address":"台北市北投區振華街8號","lat":25.1157247,"lng":121.5196155},"580":{"store":"美廉社","store_name":"北投實踐店","address":"台北市北投區實踐街52號","lat":25.1151195,"lng":121.5093861},"581":{"store":"美廉社","store_name":"松山八德店","address":"台北市松山區八德路3段74巷45弄1號","lat":25.0461713,"lng":121.5524841},"582":{"store":"美廉社","store_name":"松山南京東二店","address":"台北市松山區南京東路五段250巷36弄25號","lat":25.0498093,"lng":121.5674766},"583":{"store":"美廉社","store_name":"松山南京東店","address":"台北市松山區南京東路四段133巷5弄8號","lat":25.0523541,"lng":121.5554015},"584":{"store":"美廉社","store_name":"松山復興店","address":"台北市松山區復興北路427巷1號","lat":25.0634505,"lng":121.5446756},"585":{"store":"美廉社","store_name":"松山新東店","address":"台北市松山區新東街12巷1號","lat":25.057826,"lng":121.566336},"586":{"store":"美廉社","store_name":"松山寶清店","address":"台北市松山區寶清街40號","lat":25.0530076,"lng":121.5677422},"587":{"store":"美廉社","store_name":"北市富陽店","address":"台北市信義區富陽街81號1樓","lat":25.0214755,"lng":121.5565987},"588":{"store":"美廉社","store_name":"信義永吉二店","address":"台北市信義區永吉路326巷5號","lat":25.0449879,"lng":121.575625},"589":{"store":"美廉社","store_name":"信義永吉店","address":"台北市信義區永吉路180巷66弄24號1樓","lat":25.0433749,"lng":121.570626},"590":{"store":"美廉社","store_name":"信義光復店","address":"台北市信義區光復南路447-40號","lat":25.0352599,"lng":121.5584909},"591":{"store":"美廉社","store_name":"信義吳興二店","address":"台北市信義區吳興街345巷1號","lat":25.0266625,"lng":121.5658683},"592":{"store":"美廉社","store_name":"信義吳興三店","address":"台北市信義區吳興街522號","lat":25.022041,"lng":121.568802},"593":{"store":"美廉社","store_name":"信義吳興店","address":"台北市信義區吳興街284巷15之2號","lat":25.0243305,"lng":121.5637659},"594":{"store":"美廉社","store_name":"信義忠孝東二店","address":"台北市信義區忠孝東路五段524巷12號","lat":25.040623,"lng":121.57966},"595":{"store":"美廉社","store_name":"信義忠孝東店","address":"台北市信義區忠孝東路五段345巷10號","lat":25.0418894,"lng":121.5739964},"596":{"store":"美廉社","store_name":"信義林口店","address":"台北市信義區林口街36-3號1樓","lat":25.0378697,"lng":121.5796242},"597":{"store":"美廉社","store_name":"信義虎林二店","address":"台北市信義區虎林街164巷8號1樓","lat":25.0389623,"lng":121.576268},"598":{"store":"美廉社","store_name":"信義虎林店","address":"台北市信義區虎林街222巷46號","lat":25.0366239,"lng":121.57606},"599":{"store":"美廉社","store_name":"信義崇德店","address":"台北市信義區崇德街59號","lat":25.0243569,"lng":121.554672},"600":{"store":"美廉社","store_name":"信義莊敬店","address":"台北市信義區莊敬路423巷8弄4號","lat":25.028444,"lng":121.56717},"601":{"store":"美廉社","store_name":"信義福德店","address":"台北市信義區福德街268巷25號","lat":25.0399528,"lng":121.585508},"602":{"store":"美廉社","store_name":"南港玉成店","address":"台北市南港區玉成街178號","lat":25.0442177,"lng":121.5844645},"603":{"store":"美廉社","store_name":"南港忠孝東店","address":"台北市南港區忠孝東路六段278巷3號","lat":25.0489481,"lng":121.5894141},"604":{"store":"美廉社","store_name":"南港東明店","address":"台北市南港區東明街9號","lat":25.056174,"lng":121.6052601},"605":{"store":"美廉社","store_name":"南港研究院店","address":"台北市南港區研究院路2段12巷14弄2號","lat":25.0473678,"lng":121.6147767},"606":{"store":"美廉社","store_name":"南港福德店","address":"台北市南港區福德街346號","lat":25.039688,"lng":121.5885662},"607":{"store":"美廉社","store_name":"萬華大理店","address":"台北市萬華區大理街181號1樓","lat":25.0339008,"lng":121.4944355},"608":{"store":"美廉社","store_name":"萬華中華店","address":"台北市萬華區中華路二段426-7號1樓","lat":25.0276497,"lng":121.5057474},"609":{"store":"美廉社","store_name":"萬華長泰店","address":"台北市萬華區長泰街4號1樓","lat":25.0232077,"lng":121.5012322},"610":{"store":"美廉社","store_name":"萬華萬大二店","address":"台北市萬華區萬大路493巷48弄12號","lat":25.0193875,"lng":121.499126},"611":{"store":"美廉社","store_name":"萬華萬大店","address":"台北市萬華區萬大路424巷39號","lat":25.0213099,"lng":121.4961878},"612":{"store":"美廉社","store_name":"萬華興義店","address":"台北市萬華區興義街33號","lat":25.0267336,"lng":121.4919968},"613":{"store":"美廉社","store_name":"萬華環河南店","address":"台北市萬華區環河南路二段250巷28弄4號","lat":25.0333995,"lng":121.4918896},"614":{"store":"美廉社","store_name":"萬華雙園店","address":"台北市萬華區雙園街13號","lat":25.0291578,"lng":121.4951116},"615":{"store":"美廉社","store_name":"八里中山二店","address":"新北市八里區舊城里中山路二段239號","lat":25.1491148,"lng":121.4031241},"616":{"store":"美廉社","store_name":"八里中山店","address":"新北市八里區中山路一段181號","lat":25.1584579,"lng":121.4119033},"617":{"store":"美廉社","store_name":"八里訊塘店","address":"新北市八里區訊塘路36號1樓","lat":25.145367,"lng":121.3979647},"618":{"store":"美廉社","store_name":"八里龍米二店","address":"新北市八里區龍米路一段358號1樓","lat":25.1312032,"lng":121.4516281},"619":{"store":"美廉社","store_name":"三芝中山店","address":"新北市三芝區中山路一段47號","lat":25.2576025,"lng":121.5007469},"620":{"store":"美廉社","store_name":"三重三民店","address":"新北市三重區三民街300巷11號1樓","lat":25.0685782,"lng":121.477446},"621":{"store":"美廉社","store_name":"三重三陽店","address":"新北市三重區三陽路114號","lat":25.058635,"lng":121.483118},"622":{"store":"美廉社","store_name":"三重下竹圍店","address":"新北市三重區下竹圍街9號","lat":25.0759629,"lng":121.481115},"623":{"store":"美廉社","store_name":"三重大同北店","address":"新北市三重區大同北路85號","lat":25.0637224,"lng":121.494799},"624":{"store":"美廉社","store_name":"三重大同南店","address":"新北市三重大同南路137號","lat":25.0575875,"lng":121.4963653},"625":{"store":"美廉社","store_name":"三重大勇店","address":"新北市三重區大勇街82巷19號","lat":25.0719604,"lng":121.4796987},"626":{"store":"美廉社","store_name":"三重大智二店","address":"新北市三重區大智街79號","lat":25.0686446,"lng":121.4922506},"627":{"store":"美廉社","store_name":"三重大智店","address":"新北市三重區大智街238-1號","lat":25.072674,"lng":121.4895177},"628":{"store":"美廉社","store_name":"三重中央南店","address":"新北市三重區中央南路17號","lat":25.0624569,"lng":121.5011142},"629":{"store":"美廉社","store_name":"三重中正店","address":"新北市三重區中正北路65號","lat":25.0630724,"lng":121.4902914},"630":{"store":"美廉社","store_name":"三重中寮店","address":"新北市三重區中寮街36號","lat":25.058971,"lng":121.492706},"631":{"store":"美廉社","store_name":"三重仁愛二店","address":"新北市三重區仁愛街52號","lat":25.0727083,"lng":121.495827},"632":{"store":"美廉社","store_name":"三重仁義店","address":"新北市三重區仁義街205號","lat":25.081717,"lng":121.4969801},"633":{"store":"美廉社","store_name":"三重文化北店","address":"新北市三重區文化北路228號","lat":25.0692921,"lng":121.4974953},"634":{"store":"美廉社","store_name":"三重文化店","address":"新北市三重區文化南路17號","lat":25.0620929,"lng":121.5000228},"635":{"store":"美廉社","store_name":"三重永福三店","address":"新北市三重區永福街254號","lat":25.074863,"lng":121.484004},"636":{"store":"美廉社","store_name":"三重永福店","address":"新北市三重區永福街132號","lat":25.0748915,"lng":121.4795413},"637":{"store":"美廉社","store_name":"三重光興店","address":"新北市三重區光興街42-1號","lat":25.059677,"lng":121.497078},"638":{"store":"美廉社","store_name":"三重自由店","address":"新北市三重區自由街17巷6號","lat":25.0668359,"lng":121.479753},"639":{"store":"美廉社","store_name":"三重自強店","address":"新北市三重區自強路二段74巷25號","lat":25.069743,"lng":121.4878018},"640":{"store":"美廉社","store_name":"三重車路頭店","address":"新北市三重區車路頭街62巷5號1樓","lat":25.0728875,"lng":121.4839241},"641":{"store":"美廉社","store_name":"三重忠孝二店","address":"新北市三重區忠孝路三段40巷60號","lat":25.065696,"lng":121.483334},"642":{"store":"美廉社","store_name":"三重忠孝店","address":"新北市三重區忠孝路三段15巷6號","lat":25.0674873,"lng":121.4811983},"643":{"store":"美廉社","store_name":"三重長元店","address":"新北市三重區長元街29號","lat":25.0657864,"lng":121.4995251},"644":{"store":"美廉社","store_name":"三重重陽店","address":"新北市三重區重陽路三段5巷21號","lat":25.0650741,"lng":121.4913473},"645":{"store":"美廉社","store_name":"三重捷運店","address":"新北市三重區捷運路19巷2弄15號","lat":25.05613,"lng":121.484562},"646":{"store":"美廉社","store_name":"三重集成店","address":"新北市三重區集成路31號","lat":25.0522988,"lng":121.4891148},"647":{"store":"美廉社","store_name":"三重慈愛店","address":"新北市三重區慈愛街45號","lat":25.0788294,"lng":121.4854252},"648":{"store":"美廉社","store_name":"三重新興店","address":"新北市三重區新興路40號","lat":25.053412,"lng":121.49162},"649":{"store":"美廉社","store_name":"三重碧華店","address":"新北市三重區碧華街321號","lat":25.0844464,"lng":121.4913048},"650":{"store":"美廉社","store_name":"三重龍門店","address":"新北市三重區龍門路272之2號","lat":25.074049,"lng":121.5014632},"651":{"store":"美廉社","store_name":"三重龍濱店","address":"新北市三重區龍濱路37號","lat":25.0685782,"lng":121.5028011},"652":{"store":"美廉社","store_name":"三重雙園店","address":"新北市三重區雙園街57巷3號","lat":25.0677384,"lng":121.4948833},"653":{"store":"美廉社","store_name":"三峽大仁店","address":"新北市三峽區大仁路32號","lat":24.937728,"lng":121.366043},"654":{"store":"美廉社","store_name":"三峽大同店","address":"新北市三峽區大同路1之10號","lat":24.926838,"lng":121.370659},"655":{"store":"美廉社","store_name":"三峽大德店","address":"新北市三峽區大德路485-2號","lat":24.947666,"lng":121.3742201},"656":{"store":"美廉社","store_name":"三峽大學店","address":"新北市三峽區大學路67號","lat":24.9409633,"lng":121.3762749},"657":{"store":"美廉社","store_name":"三峽中山店","address":"新北市三峽區中山路305號1樓","lat":24.9377375,"lng":121.3612523},"658":{"store":"美廉社","store_name":"三峽民權店","address":"新北市三峽區民權街187號","lat":24.929486,"lng":121.367916},"659":{"store":"美廉社","store_name":"三峽白雞店","address":"新北市三峽區白雞33之12.13號","lat":24.905763,"lng":121.399136},"660":{"store":"美廉社","store_name":"三峽復興二店","address":"新北市三峽區復興路82號","lat":24.937613,"lng":121.37302},"661":{"store":"美廉社","store_name":"三峽溪東店","address":"新北市三峽區溪東路148號","lat":24.9329393,"lng":121.4054097},"662":{"store":"美廉社","store_name":"土城中央二店","address":"新北市土城區中央路二段278巷8-3號","lat":24.9748841,"lng":121.4402131},"663":{"store":"美廉社","store_name":"土城中央店","address":"新北市土城區中央路4段296號","lat":24.9564164,"lng":121.4140743},"664":{"store":"美廉社","store_name":"土城中正店","address":"新北市土城區中正路45號","lat":24.975514,"lng":121.443963},"665":{"store":"美廉社","store_name":"土城延平店","address":"新北市土城區延平街54號","lat":24.9925763,"lng":121.4680156},"666":{"store":"美廉社","store_name":"土城延吉三店","address":"新北市土城區延吉街120號","lat":24.9861214,"lng":121.4699777},"667":{"store":"美廉社","store_name":"土城延吉店","address":"新北市土城區延吉街291巷15號","lat":24.9838807,"lng":121.467318},"668":{"store":"美廉社","store_name":"土城延和店","address":"新北市土城區延和路201號","lat":24.9902435,"lng":121.4695235},"669":{"store":"美廉社","store_name":"土城青雲二店","address":"新北市土城區青雲路531號","lat":24.9726817,"lng":121.4589138},"670":{"store":"美廉社","store_name":"土城青雲店","address":"新北市土城區青雲路295巷16弄64號","lat":24.9791715,"lng":121.4601424},"671":{"store":"美廉社","store_name":"土城員林店","address":"新北市土城區員林街18號","lat":24.977541,"lng":121.443402},"672":{"store":"美廉社","store_name":"土城裕民店","address":"新北市土城區裕民路67巷2號","lat":24.9879664,"lng":121.449458},"673":{"store":"美廉社","store_name":"土城裕生店","address":"新北市土城區裕生路24號","lat":24.9873703,"lng":121.4480375},"674":{"store":"美廉社","store_name":"土城福安店","address":"新北市土城區福安街33號","lat":24.9646839,"lng":121.4192943},"675":{"store":"美廉社","store_name":"土城福祥店","address":"新北市土城區福祥街36號","lat":24.9805909,"lng":121.441368},"676":{"store":"美廉社","store_name":"土城廣興店","address":"新北市土城區廣興街75號","lat":24.9913261,"lng":121.4537695},"677":{"store":"美廉社","store_name":"土城學士店","address":"新北市土城區學士路24巷2號","lat":24.9827592,"lng":121.45301},"678":{"store":"美廉社","store_name":"土城學成店","address":"新北市土城區學成路31號1樓","lat":24.9870004,"lng":121.4527404},"679":{"store":"美廉社","store_name":"中和大勇二店","address":"新北市中和區大勇街29巷1號","lat":24.9941274,"lng":121.5161071},"680":{"store":"美廉社","store_name":"中和中山店","address":"新北市中和區中山路二段64巷12-2號","lat":25.005402,"lng":121.503652},"681":{"store":"美廉社","store_name":"中和仁愛二店","address":"新北市中和區仁愛街91號","lat":24.9869929,"lng":121.5117247},"682":{"store":"美廉社","store_name":"中和民利店","address":"新北市中和區民利街8號","lat":24.9992731,"lng":121.480828},"683":{"store":"美廉社","store_name":"中和民享店","address":"新北市中和區民享街86巷27號","lat":25.0003979,"lng":121.4731083},"684":{"store":"美廉社","store_name":"中和自立店","address":"新北市中和區自立路157號","lat":24.9927362,"lng":121.5228005},"685":{"store":"美廉社","store_name":"中和秀朗店","address":"新北市中和區秀朗路三段14號","lat":24.9966235,"lng":121.5262047},"686":{"store":"美廉社","store_name":"中和和平店","address":"新北市中和區和平街164巷4號","lat":24.9923583,"lng":121.5058286},"687":{"store":"美廉社","store_name":"中和忠孝店","address":"新北市中和區忠孝街39-1號","lat":24.9838325,"lng":121.5115077},"688":{"store":"美廉社","store_name":"中和保健店","address":"新北市中和區保健路19巷31號","lat":24.9988546,"lng":121.5086153},"689":{"store":"美廉社","store_name":"中和南山二店","address":"新北市中和區南山路59號","lat":24.9983342,"lng":121.5021484},"690":{"store":"美廉社","store_name":"中和南山店","address":"新北市中和區南山路174-3號","lat":24.9911621,"lng":121.5049772},"691":{"store":"美廉社","store_name":"中和南華店","address":"新北市中和區南華路66號","lat":24.997185,"lng":121.5047939},"692":{"store":"美廉社","store_name":"中和員山店","address":"新北市中和區員山路150巷2弄47號","lat":24.997364,"lng":121.482236},"693":{"store":"美廉社","store_name":"中和國光店","address":"新北市中和區國光街110號1樓","lat":25.000655,"lng":121.470001},"694":{"store":"美廉社","store_name":"中和莊敬店","address":"新北市中和區莊敬路43號","lat":25.005156,"lng":121.501034},"695":{"store":"美廉社","store_name":"中和連城三店","address":"新北市中和區連城路469巷27號","lat":24.994851,"lng":121.483711},"696":{"store":"美廉社","store_name":"中和連勝二店","address":"新北市中和區連勝街26巷1號","lat":24.9980325,"lng":121.4981713},"697":{"store":"美廉社","store_name":"中和連勝店","address":"新北市中和區連勝街137號","lat":24.9959404,"lng":121.4946055},"698":{"store":"美廉社","store_name":"中和復興店","address":"新北市中和區復興路280巷18弄6號","lat":24.9917025,"lng":121.5023604},"699":{"store":"美廉社","store_name":"中和景新三店","address":"新北市中和區景新街186號","lat":24.9961135,"lng":121.5062642},"700":{"store":"美廉社","store_name":"中和景新店","address":"新北市中和區景新街467巷26號","lat":24.9884418,"lng":121.5144361},"701":{"store":"美廉社","store_name":"中和景德店","address":"新北市中和區景德街55號","lat":24.9913747,"lng":121.517546},"702":{"store":"美廉社","store_name":"中和華順店","address":"新北市中和區華順街142號","lat":24.9958037,"lng":121.4647234},"703":{"store":"美廉社","store_name":"中和華新店","address":"新北市中和區華新街160號","lat":24.9825035,"lng":121.5074402},"704":{"store":"美廉社","store_name":"中和圓通二店","address":"新北市中和區圓通路151號1樓","lat":24.9956615,"lng":121.4982524},"705":{"store":"美廉社","store_name":"中和圓通店","address":"新北市中和區圓通路335巷3弄4號","lat":24.9901395,"lng":121.4926876},"706":{"store":"美廉社","store_name":"中和新生二店","address":"新北市中和區新生街112巷27號","lat":25.0027117,"lng":121.4825537},"707":{"store":"美廉社","store_name":"中和新生店","address":"新北市中和區新生街185號","lat":25.0004734,"lng":121.4837753},"708":{"store":"美廉社","store_name":"中和壽德二店","address":"新北市中和區壽德街23號","lat":24.9952377,"lng":121.4660067},"709":{"store":"美廉社","store_name":"中和興南二店","address":"新北市中和區興南路二段71號","lat":24.984859,"lng":121.50686},"710":{"store":"美廉社","store_name":"中和興南三店","address":"新北市中和區興南路二段159巷4號","lat":24.983356,"lng":121.504877},"711":{"store":"美廉社","store_name":"中和錦和店","address":"新北市中和區錦和路198號","lat":24.9948925,"lng":121.490091},"712":{"store":"美廉社","store_name":"五股五福店","address":"新北市五股區五福路35號","lat":25.0894432,"lng":121.4335578},"713":{"store":"美廉社","store_name":"五股水碓店","address":"新北市五股區水碓路15號","lat":25.0724661,"lng":121.4334976},"714":{"store":"美廉社","store_name":"五股民義二店","address":"新北市五股區民義路一段141號","lat":25.0874165,"lng":121.4329089},"715":{"store":"美廉社","store_name":"五股民義店","address":"新北市五股區民義路一段42-3號","lat":25.0840491,"lng":121.4369461},"716":{"store":"美廉社","store_name":"五股成泰二店","address":"新北市五股區成泰路4段14號","lat":25.106801,"lng":121.4533509},"717":{"store":"美廉社","store_name":"五股西雲店","address":"新北市五股區西雲路168號1樓","lat":25.0947586,"lng":121.4469177},"718":{"store":"美廉社","store_name":"五股凌雲店","address":"新北市五股區凌雲路一段70號","lat":25.1012674,"lng":121.4510757},"719":{"store":"美廉社","store_name":"五股登林店","address":"新北市五股區登林路76-8號","lat":25.0695317,"lng":121.4300496},"720":{"store":"美廉社","store_name":"永和仁愛店","address":"新北市永和區仁愛路306巷31號","lat":25.008552,"lng":121.5022702},"721":{"store":"美廉社","store_name":"永和民族店","address":"新北市永和區民族街67巷25號","lat":24.9972187,"lng":121.5193299},"722":{"store":"美廉社","store_name":"永和安樂店","address":"新北市永和區安樂路304巷25號","lat":25.0057867,"lng":121.5153102},"723":{"store":"美廉社","store_name":"永和成功店","address":"新北市永和區成功路二段129巷10-1號","lat":24.9982494,"lng":121.5270282},"724":{"store":"美廉社","store_name":"永和竹林店","address":"新北市永和區竹林路39巷11號","lat":25.0147805,"lng":121.5184297},"725":{"store":"美廉社","store_name":"永和秀朗二店","address":"新北市永和區秀朗路二段158號","lat":25.0014591,"lng":121.5256306},"726":{"store":"美廉社","store_name":"永和秀朗店","address":"新北市永和區秀朗路二段11號","lat":25.0028893,"lng":121.5208783},"727":{"store":"美廉社","store_name":"永和信義店","address":"新北市永和區信義路92號","lat":25.0137338,"lng":121.5125589},"728":{"store":"美廉社","store_name":"永和保平二店","address":"新北市永和區保平路30巷1號","lat":25.0073914,"lng":121.5117338},"729":{"store":"美廉社","store_name":"永和保平店","address":"新北市永和區保平路264號","lat":25.0052246,"lng":121.5088898},"730":{"store":"美廉社","store_name":"永和保安店","address":"新北市永和區保安路67號","lat":25.0153469,"lng":121.509012},"731":{"store":"美廉社","store_name":"永和保福店","address":"新北市永和區保福路二段72號","lat":25.0131323,"lng":121.5105693},"732":{"store":"美廉社","store_name":"永和國光店","address":"新北市永和區國光路98號","lat":25.0107369,"lng":121.5180153},"733":{"store":"美廉社","store_name":"永和得和二店","address":"新北市永和區得和路373巷7號","lat":24.9997491,"lng":121.5247783},"734":{"store":"美廉社","store_name":"永和得和店","address":"新北市永和區得和路287號","lat":24.9998629,"lng":121.522556},"735":{"store":"美廉社","store_name":"永和智光店","address":"新北市永和區智光街113號","lat":24.9962196,"lng":121.5156912},"736":{"store":"美廉社","store_name":"永和福和店","address":"新北市永和區福和路57巷9號","lat":25.007583,"lng":121.5231537},"737":{"store":"美廉社","store_name":"石碇湳窟店","address":"新北市石碇區碇坪路一段132號","lat":24.991479,"lng":121.6599275},"738":{"store":"美廉社","store_name":"汐止仁愛二店","address":"新北市汐止區仁愛路91號1樓","lat":25.063246,"lng":121.661581},"739":{"store":"美廉社","store_name":"汐止仁愛店","address":"新北市汐止區仁愛路205號","lat":25.0661459,"lng":121.6647693},"740":{"store":"美廉社","store_name":"汐止水源二店","address":"新北市汐止區水源路一段200號","lat":25.0615642,"lng":121.6544587},"741":{"store":"美廉社","store_name":"汐止水源店","address":"新北市汐止區水源路一段293號","lat":25.0582771,"lng":121.6544355},"742":{"store":"美廉社","store_name":"汐止民族店","address":"新北市汐止區民族三街41號","lat":25.0700374,"lng":121.6299043},"743":{"store":"美廉社","store_name":"汐止汐萬店","address":"新北市汐止區汐萬路一段349號1樓","lat":25.077155,"lng":121.650021},"744":{"store":"美廉社","store_name":"汐止和平店","address":"新北市汐止區和平街46巷6號","lat":25.071322,"lng":121.662534},"745":{"store":"美廉社","store_name":"汐止宜興店","address":"新北市汐止區宜興街3號","lat":25.0414564,"lng":121.6210138},"746":{"store":"美廉社","store_name":"汐止明峰店","address":"新北市汐止區明峰街308號1樓","lat":25.067677,"lng":121.6250587},"747":{"store":"美廉社","store_name":"汐止茄苳店","address":"新北市汐止區茄苳路50號","lat":25.0707313,"lng":121.6661337},"748":{"store":"美廉社","store_name":"汐止康寧二店","address":"新北市汐止區康寧街141巷39弄2號","lat":25.0675665,"lng":121.6211758},"749":{"store":"美廉社","store_name":"汐止康寧店","address":"新北市汐止區康寧街473號","lat":25.0684704,"lng":121.6319818},"750":{"store":"美廉社","store_name":"汐止新興店","address":"新北市汐止區新興路11號","lat":25.0648457,"lng":121.6565717},"751":{"store":"美廉社","store_name":"汐止福德二店","address":"新北市汐止區福德一路62號","lat":25.0688907,"lng":121.638231},"752":{"store":"美廉社","store_name":"汐止樟樹二店","address":"新北市汐止區樟樹一路119巷23號","lat":25.064254,"lng":121.640573},"753":{"store":"美廉社","store_name":"汐止樟樹店","address":"新北市汐止區樟樹一路272-4號1樓","lat":25.068641,"lng":121.643008},"754":{"store":"美廉社","store_name":"汐止橫科店","address":"新北市汐止區橫科路23號","lat":25.0512621,"lng":121.6179597},"755":{"store":"美廉社","store_name":"林口文化二店","address":"新北市林口區文化三路一段2號(104櫃位)","lat":25.0663386,"lng":121.3613718},"756":{"store":"美廉社","store_name":"林口自強店","address":"新北市林口區自強二街1號","lat":25.0785115,"lng":121.3974697},"757":{"store":"美廉社","store_name":"林口麗園店","address":"新北市林口區麗園一街11巷1號1樓之4","lat":25.070498,"lng":121.3770239},"758":{"store":"美廉社","store_name":"板橋三民二店","address":"新北市板橋區三民路二段153巷28號1樓","lat":25.0149698,"lng":121.480904},"759":{"store":"美廉社","store_name":"板橋三民店","address":"新北市板橋區三民路一段31巷10號","lat":25.0230212,"lng":121.4799346},"760":{"store":"美廉社","store_name":"板橋大同店","address":"新北市板橋區大同街35巷9號","lat":25.02757,"lng":121.477479},"761":{"store":"美廉社","store_name":"板橋大智店","address":"新北市板橋區大智街32號","lat":25.0149909,"lng":121.455314},"762":{"store":"美廉社","store_name":"板橋大觀店","address":"新北市板橋區大觀路2段135號","lat":25.0011486,"lng":121.4459433},"763":{"store":"美廉社","store_name":"板橋中山二店","address":"新北市板橋區中山路二段412巷10號","lat":25.0205352,"lng":121.4831382},"764":{"store":"美廉社","store_name":"板橋中山三店","address":"新北市板橋區中山路二段505巷19弄3號","lat":25.0217044,"lng":121.4819864},"765":{"store":"美廉社","store_name":"板橋中山店","address":"新北市板橋區中山路二段90巷30號","lat":25.0154879,"lng":121.475729},"766":{"store":"美廉社","store_name":"板橋中正店","address":"新北市板橋區中正路275巷3號","lat":25.018758,"lng":121.4553385},"767":{"store":"美廉社","store_name":"板橋仁化店","address":"新北市板橋區仁化街54號","lat":25.0316427,"lng":121.4755629},"768":{"store":"美廉社","store_name":"板橋仁愛店","address":"新北市板橋區仁愛路53號","lat":24.9996223,"lng":121.4603342},"769":{"store":"美廉社","store_name":"板橋公館店","address":"新北市板橋區公館街256號","lat":25.021191,"lng":121.4595904},"770":{"store":"美廉社","store_name":"板橋文化二店","address":"新北市板橋區文化二路417巷40號","lat":25.0338324,"lng":121.4737892},"771":{"store":"美廉社","store_name":"板橋文化店","address":"新北市板橋區文化路一段188巷9弄21號","lat":25.019574,"lng":121.468561},"772":{"store":"美廉社","store_name":"板橋四川店","address":"新北市板橋區四川路二段130巷34號","lat":24.9945414,"lng":121.4496975},"773":{"store":"美廉社","store_name":"板橋民生店","address":"新北市板橋區民生路2段226巷17弄3號1樓","lat":25.0220579,"lng":121.4702811},"774":{"store":"美廉社","store_name":"板橋民有店","address":"新北市板橋區民有街61號","lat":25.0266135,"lng":121.4652436},"775":{"store":"美廉社","store_name":"板橋民治店","address":"新北市板橋區民治街72號1樓","lat":25.0326336,"lng":121.4794397},"776":{"store":"美廉社","store_name":"板橋民權店","address":"新北市板橋區民權路202巷14弄4號","lat":25.0157934,"lng":121.460755},"777":{"store":"美廉社","store_name":"板橋宏國店","address":"新北市板橋區宏國路35號","lat":25.031767,"lng":121.4680103},"778":{"store":"美廉社","store_name":"板橋沙崙店","address":"新北市板橋區沙崙街15號","lat":24.9941558,"lng":121.4315757},"779":{"store":"美廉社","store_name":"板橋和平店","address":"新北市板橋區和平路安樂巷4號","lat":24.994182,"lng":121.461301},"780":{"store":"美廉社","store_name":"板橋金華店","address":"新北市板橋區金華街9號","lat":25.0202962,"lng":121.4558002},"781":{"store":"美廉社","store_name":"板橋長安店","address":"新北市板橋區長安街331巷56號","lat":25.0131918,"lng":121.4735338},"782":{"store":"美廉社","store_name":"板橋南雅西店","address":"新北市板橋區南雅西路二段140號","lat":25.013055,"lng":121.451934},"783":{"store":"美廉社","store_name":"板橋建國店","address":"新北市板橋區建國街101號","lat":25.0175626,"lng":121.4599383},"784":{"store":"美廉社","store_name":"板橋重慶店","address":"新北市板橋區重慶路245巷70-3號","lat":25.000993,"lng":121.465823},"785":{"store":"美廉社","store_name":"板橋國泰店","address":"新北市板橋區國泰街23號","lat":25.0067316,"lng":121.4691066},"786":{"store":"美廉社","store_name":"板橋莒光店","address":"新北市板橋區莒光路101號1樓","lat":25.0241235,"lng":121.4725531},"787":{"store":"美廉社","store_name":"板橋莊敬二店","address":"新北市板橋區莊敬路260號","lat":25.0216144,"lng":121.4742253},"788":{"store":"美廉社","store_name":"板橋莊敬三店","address":"新北市板橋區莊敬路220巷60號","lat":25.0208364,"lng":121.4715652},"789":{"store":"美廉社","store_name":"板橋貴興店","address":"新北市板橋區貴興路50號","lat":25.0033023,"lng":121.4571647},"790":{"store":"美廉社","store_name":"板橋溪崑店","address":"新北市板橋區溪崑二街112巷14號","lat":24.9889248,"lng":121.426019},"791":{"store":"美廉社","store_name":"板橋裕民店","address":"新北市板橋區裕民街133巷1號","lat":25.0271974,"lng":121.4591592},"792":{"store":"美廉社","store_name":"板橋僑中店","address":"新北市板橋區僑中二街112號","lat":25.0069919,"lng":121.4456695},"793":{"store":"美廉社","store_name":"板橋實踐店","address":"新北市板橋區實踐路93巷26號","lat":25.0052269,"lng":121.465182},"794":{"store":"美廉社","store_name":"板橋漢生西店","address":"新北市板橋區漢生西路89巷6號","lat":25.0196156,"lng":121.4623795},"795":{"store":"美廉社","store_name":"板橋漢生東店","address":"新北市板橋區漢生東路279巷24號","lat":25.0092219,"lng":121.4722833},"796":{"store":"美廉社","store_name":"板橋龍泉二店","address":"新北市板橋區龍泉街56-1號","lat":25.0261428,"lng":121.4570603},"797":{"store":"美廉社","store_name":"板橋懷仁店","address":"新北市板橋區懷仁街65號","lat":25.0186458,"lng":121.477204},"798":{"store":"美廉社","store_name":"板橋懷德店","address":"新北市板橋區懷德街185號","lat":25.0298167,"lng":121.4797326},"799":{"store":"美廉社","store_name":"泰山仁愛店","address":"新北市泰山區仁愛路4號","lat":25.0538813,"lng":121.4305888},"800":{"store":"美廉社","store_name":"泰山民族店","address":"新北市泰山區民族街1號","lat":25.0520567,"lng":121.428873},"801":{"store":"美廉社","store_name":"泰山全興店","address":"新北市泰山區全興路103號","lat":25.0569934,"lng":121.4336215},"802":{"store":"美廉社","store_name":"泰山泰林二店","address":"新北市泰山區泰林路二段559號","lat":25.0635815,"lng":121.4227234},"803":{"store":"美廉社","store_name":"泰山新民店","address":"新北市泰山區新民路14巷3號","lat":25.0435209,"lng":121.4256963},"804":{"store":"美廉社","store_name":"泰山楓江店","address":"新北市泰山區楓江路37號1樓","lat":25.0626281,"lng":121.4348559},"805":{"store":"美廉社","store_name":"淡水大忠店","address":"新北市淡水區大忠街155號","lat":25.1767561,"lng":121.4481116},"806":{"store":"美廉社","store_name":"淡水中正東店","address":"新北市淡水區中正東路一段117號","lat":25.1597987,"lng":121.4545017},"807":{"store":"美廉社","store_name":"淡水水源店","address":"新北市淡水區水源街1段9號","lat":25.1724701,"lng":121.442744},"808":{"store":"美廉社","store_name":"淡水北新二店","address":"新北市淡水區北新路58號","lat":25.1782048,"lng":121.4460214},"809":{"store":"美廉社","store_name":"淡水北新三店","address":"新北市淡水區北新路184巷41號","lat":25.1779129,"lng":121.4507227},"810":{"store":"美廉社","store_name":"淡水北新四店","address":"新北市淡水區北新路141巷52號","lat":25.1794894,"lng":121.4483437},"811":{"store":"美廉社","store_name":"淡水自強二店","address":"新北市淡水區自強路72號","lat":25.1278275,"lng":121.4630776},"812":{"store":"美廉社","store_name":"淡水沙崙二店","address":"新北市淡水區沙崙路29號","lat":25.1817778,"lng":121.421607},"813":{"store":"美廉社","store_name":"淡水沙崙三店","address":"新北市淡水區沙崙路199-1號","lat":25.1841175,"lng":121.4249632},"814":{"store":"美廉社","store_name":"淡水坪頂店","address":"新北市淡水區坪頂路38巷1號1樓","lat":25.16028,"lng":121.461441},"815":{"store":"美廉社","store_name":"淡水新市店","address":"新北市淡水區新市一路3段102號","lat":25.1828506,"lng":121.4463717},"816":{"store":"美廉社","store_name":"淡水新民店","address":"新北市淡水區新民街70號","lat":25.1762839,"lng":121.4387346},"817":{"store":"美廉社","store_name":"淡水新春二店","address":"新北市淡水區新春街105號","lat":25.1819076,"lng":121.440977},"818":{"store":"美廉社","store_name":"淡水新春三店","address":"新北市淡水區新春里新春街189號","lat":25.1810377,"lng":121.4439275},"819":{"store":"美廉社","store_name":"淡水新春店","address":"新北市淡水區新春街30號","lat":25.1813505,"lng":121.4370093},"820":{"store":"美廉社","store_name":"淡水學府二店","address":"新北市淡水區學府路100巷15號","lat":25.1715485,"lng":121.4506807},"821":{"store":"美廉社","store_name":"淡水學府店","address":"新北市淡水區學府路73巷2弄1號","lat":25.1700356,"lng":121.4480714},"822":{"store":"美廉社","store_name":"深坑北深店","address":"新北市深坑區北深路一段119號","lat":25.0106239,"lng":121.6349882},"823":{"store":"美廉社","store_name":"深坑埔新店","address":"新北市深坑區埔新街82號","lat":25.0024601,"lng":121.6194123},"824":{"store":"美廉社","store_name":"新店三民店","address":"新北市新店區三民路173號1樓","lat":24.975074,"lng":121.534701},"825":{"store":"美廉社","store_name":"新店大新店","address":"新北市新店區大新街3號","lat":24.9687789,"lng":121.5436402},"826":{"store":"美廉社","store_name":"新店中正店","address":"新北市新店區中正路680巷3號","lat":24.9901959,"lng":121.534419},"827":{"store":"美廉社","store_name":"新店北宜二店","address":"新北市新店區北宜路二段108-2號","lat":24.953607,"lng":121.555865},"828":{"store":"美廉社","store_name":"新店北宜店","address":"新北市新店區北宜路二段453號","lat":24.9542842,"lng":121.5614534},"829":{"store":"美廉社","store_name":"新店北新店","address":"新北市新店區北新路三段65巷13號","lat":24.9809642,"lng":121.5409284},"830":{"store":"美廉社","store_name":"新店永平店","address":"新北市新店區永平街60號","lat":24.9847654,"lng":121.5162651},"831":{"store":"美廉社","store_name":"新店永安二店","address":"新北市新店區永安街79號","lat":24.9867635,"lng":121.5198008},"832":{"store":"美廉社","store_name":"新店永業店","address":"新北市新店區永業路22巷1號","lat":24.9557173,"lng":121.5331638},"833":{"store":"美廉社","store_name":"新店安民二店","address":"新北市新店區安民街196.198號","lat":24.9701437,"lng":121.5167163},"834":{"store":"美廉社","store_name":"新店安民店","address":"新北市新店區安民街61號","lat":24.9665169,"lng":121.5163496},"835":{"store":"美廉社","store_name":"新店安和店","address":"新北市新店區安和路二段205巷4號","lat":24.9751893,"lng":121.5175045},"836":{"store":"美廉社","store_name":"新店安康店","address":"新北市新店區安康路三段361號","lat":24.9507646,"lng":121.4840266},"837":{"store":"美廉社","store_name":"新店安祥二店","address":"新北市新店區安祥路104-6號","lat":24.962402,"lng":121.4800173},"838":{"store":"美廉社","store_name":"新店玫瑰二店","address":"新北市新店區玫瑰路16號","lat":24.9502799,"lng":121.494588},"839":{"store":"美廉社","store_name":"新店華中店","address":"新北市新店區華中街44號","lat":24.9707141,"lng":121.5407659},"840":{"store":"美廉社","store_name":"新店新生店","address":"新北市新店區新生街6號1樓","lat":24.966147,"lng":121.540301},"841":{"store":"美廉社","store_name":"新店新烏店","address":"新北市新店區新烏路2段376-378號","lat":24.9096686,"lng":121.5509281},"842":{"store":"美廉社","store_name":"新店僑信店","address":"新北市新店區僑信路82號","lat":24.9482644,"lng":121.4996017},"843":{"store":"美廉社","store_name":"新店德正店","address":"新北市新店區德正街46號","lat":24.971405,"lng":121.5443781},"844":{"store":"美廉社","store_name":"新店寶元店","address":"新北市新店區寶元路2段17巷2號","lat":24.9823373,"lng":121.5462245},"845":{"store":"美廉社","store_name":"新店寶興二店","address":"新北市新店區寶興路41-1號","lat":24.9738483,"lng":121.5491464},"846":{"store":"美廉社","store_name":"新莊八德店","address":"新北市新莊區八德街158巷2號","lat":25.020075,"lng":121.423414},"847":{"store":"美廉社","store_name":"新莊中平二店","address":"新北市新莊區中平路184巷10弄5號","lat":25.0483337,"lng":121.4452079},"848":{"store":"美廉社","store_name":"新莊中正店","address":"新北市新莊區中正路929巷29號","lat":25.0199774,"lng":121.4113459},"849":{"store":"美廉社","store_name":"新莊中港二店","address":"新北市新莊區中港路150號","lat":25.041198,"lng":121.45529},"850":{"store":"美廉社","store_name":"新莊中港店","address":"新北市新莊區中港三街7號","lat":25.0464201,"lng":121.4511761},"851":{"store":"美廉社","store_name":"新莊中華店","address":"新北市新莊區中華路二段260號","lat":25.0532902,"lng":121.4526305},"852":{"store":"美廉社","store_name":"新莊中誠店","address":"新北市新莊區中誠街172號","lat":25.0473881,"lng":121.4478711},"853":{"store":"美廉社","store_name":"新莊公園店","address":"新北市新莊區公園一路133號","lat":25.0382676,"lng":121.445963},"854":{"store":"美廉社","store_name":"新莊化成店","address":"新北市新莊區化成路313號","lat":25.0556329,"lng":121.465808},"855":{"store":"美廉社","store_name":"新莊天祥店","address":"新北市新莊區天祥街75號","lat":25.029183,"lng":121.415699},"856":{"store":"美廉社","store_name":"新莊四維店","address":"新北市新莊區成德街61號1樓","lat":25.0216447,"lng":121.4236958},"857":{"store":"美廉社","store_name":"新莊民安東店","address":"新北市新莊區民安東路172號","lat":25.0202914,"lng":121.4328064},"858":{"store":"美廉社","store_name":"新莊立信店","address":"新北市新莊區立信五街16號","lat":25.0515836,"lng":121.4438165},"859":{"store":"美廉社","store_name":"新莊成功店","address":"新北市新莊區成功街7號","lat":25.0217164,"lng":121.4258579},"860":{"store":"美廉社","store_name":"新莊自立店","address":"新北市新莊區自立街66號","lat":25.045225,"lng":121.454115},"861":{"store":"美廉社","store_name":"新莊西盛店","address":"新北市新莊區西盛街321號","lat":25.015013,"lng":121.428546},"862":{"store":"美廉社","store_name":"新莊昌明店","address":"新北市新莊區昌明街8號","lat":25.0523853,"lng":121.4576206},"863":{"store":"美廉社","store_name":"新莊昌隆店","address":"新北市新莊區昌隆里昌隆街9號","lat":25.050985,"lng":121.4540085},"864":{"store":"美廉社","store_name":"新莊後港店","address":"新北市新莊區後港一路28巷5弄3號","lat":25.025529,"lng":121.4255223},"865":{"store":"美廉社","store_name":"新莊泰順二店","address":"新北市新莊區泰順街11號","lat":25.0422831,"lng":121.4456838},"866":{"store":"美廉社","store_name":"新莊新泰店","address":"新北市新莊區新泰路13號","lat":25.032657,"lng":121.4496094},"867":{"store":"美廉社","store_name":"新莊裕民店","address":"新北市新莊區裕民街107號","lat":25.0229261,"lng":121.4183706},"868":{"store":"美廉社","store_name":"新莊福營店","address":"新北市新莊區福營路328號","lat":25.0270249,"lng":121.4219276},"869":{"store":"美廉社","store_name":"新莊雙鳳店","address":"新北市新莊區雙鳳路123號","lat":25.0280074,"lng":121.4134841},"870":{"store":"美廉社","store_name":"新莊瓊泰店","address":"新北市新莊區瓊泰路140號","lat":25.0320865,"lng":121.4432726},"871":{"store":"美廉社","store_name":"瑞芳三爪子坑店","address":"新北市瑞芳區三爪子坑路105-1號","lat":25.1071767,"lng":121.8109704},"872":{"store":"美廉社","store_name":"瑞芳大埔店","address":"新北市瑞芳區大埔路180-3號","lat":25.1020194,"lng":121.7622405},"873":{"store":"美廉社","store_name":"樹林三福店","address":"新北市樹林區三福街25號","lat":25.0167046,"lng":121.4087232},"874":{"store":"美廉社","store_name":"樹林千歲店","address":"新北市樹林區千歲街22號1樓","lat":24.9959312,"lng":121.4252304},"875":{"store":"美廉社","store_name":"樹林大安店","address":"新北市樹林區大安路111巷14號","lat":24.9973783,"lng":121.4232926},"876":{"store":"美廉社","store_name":"樹林太元店","address":"新北市樹林區太元街2巷1號","lat":24.981192,"lng":121.417485},"877":{"store":"美廉社","store_name":"樹林太順店","address":"新北市樹林區太順街61號","lat":24.9787344,"lng":121.4172702},"878":{"store":"美廉社","store_name":"樹林文化店","address":"新北市樹林區文化街19號","lat":24.9875546,"lng":121.4194092},"879":{"store":"美廉社","store_name":"樹林育英店","address":"新北市樹林區育英街110號","lat":24.9893938,"lng":121.4201516},"880":{"store":"美廉社","store_name":"樹林東榮一店","address":"新北市樹林區東榮街104號","lat":24.9823831,"lng":121.415548},"881":{"store":"美廉社","store_name":"樹林俊英店","address":"新北市樹林區俊英街246號","lat":25.0107992,"lng":121.4246205},"882":{"store":"美廉社","store_name":"樹林柑園店","address":"新北市樹林區柑園街二段2號","lat":24.9560017,"lng":121.3884921},"883":{"store":"美廉社","store_name":"樹林復興店","address":"新北市樹林區復興路104號","lat":24.9928946,"lng":121.421279},"884":{"store":"美廉社","store_name":"樹林龍興店","address":"新北市樹林區龍興街16號","lat":25.0162488,"lng":121.4028016},"885":{"store":"美廉社","store_name":"雙溪中華店","address":"新北市雙溪區中華路102-2號","lat":25.0390271,"lng":121.8660496},"886":{"store":"美廉社","store_name":"蘆洲三民店","address":"新北市蘆洲區三民路26巷45號","lat":25.0831545,"lng":121.4777405},"887":{"store":"美廉社","store_name":"蘆洲中正三店","address":"新北市蘆洲區中正路185巷55號1樓","lat":25.0837765,"lng":121.4653981},"888":{"store":"美廉社","store_name":"蘆洲中興店","address":"新北市蘆洲區中興街46號1樓","lat":25.0872336,"lng":121.481519},"889":{"store":"美廉社","store_name":"蘆洲仁愛二店","address":"新北市蘆洲區仁愛街118巷2號","lat":25.0949874,"lng":121.4696015},"890":{"store":"美廉社","store_name":"蘆洲仁愛店","address":"新北市蘆洲區仁愛街34號","lat":25.0932355,"lng":121.4721072},"891":{"store":"美廉社","store_name":"蘆洲正和店","address":"新北市蘆洲區正和街122號","lat":25.0804376,"lng":121.4675042},"892":{"store":"美廉社","store_name":"蘆洲民族二店","address":"新北市蘆洲區民族路432號","lat":25.0920009,"lng":121.473422},"893":{"store":"美廉社","store_name":"蘆洲民族店","address":"新北市蘆洲區民族路217號","lat":25.0895828,"lng":121.4778547},"894":{"store":"美廉社","store_name":"蘆洲民權店","address":"新北市蘆洲區民權路73號","lat":25.088385,"lng":121.4734708},"895":{"store":"美廉社","store_name":"蘆洲永平店","address":"新北市蘆洲區永平街32巷35號","lat":25.0922022,"lng":121.4594541},"896":{"store":"美廉社","store_name":"蘆洲永安北店","address":"新北市蘆洲區永安北路二段56號","lat":25.0837442,"lng":121.4827539},"897":{"store":"美廉社","store_name":"蘆洲長安二店","address":"新北市蘆洲區長安街271號","lat":25.0842475,"lng":121.4584035},"898":{"store":"美廉社","store_name":"蘆洲長安店","address":"新北市蘆洲區長安街79號","lat":25.080095,"lng":121.462413},"899":{"store":"美廉社","store_name":"蘆洲長樂店","address":"新北市蘆洲區長樂路41號","lat":25.0857561,"lng":121.4631279},"900":{"store":"美廉社","store_name":"蘆洲信義店","address":"新北市蘆洲區信義路37巷22號","lat":25.0800472,"lng":121.474253},"901":{"store":"美廉社","store_name":"蘆洲復興店","address":"新北市蘆洲區復興路296號","lat":25.0899189,"lng":121.481092},"902":{"store":"美廉社","store_name":"鶯歌大湖店","address":"新北市鶯歌區大湖路530巷29號","lat":24.9733974,"lng":121.3379499},"903":{"store":"美廉社","store_name":"鶯歌中山店","address":"新北市鶯歌區中山路329巷6弄17號","lat":24.955863,"lng":121.343842},"904":{"store":"美廉社","store_name":"鶯歌中正店","address":"新北市鶯歌區中正三路123-2號","lat":24.9407335,"lng":121.33796},"905":{"store":"美廉社","store_name":"鶯歌尖山店","address":"新北市鶯歌區尖山路177號","lat":24.9474853,"lng":121.3448215},"906":{"store":"美廉社","store_name":"鶯歌國慶店","address":"新北市鶯歌區國慶街111號","lat":24.9543198,"lng":121.3505678},"907":{"store":"美廉社","store_name":"鶯歌鶯桃店","address":"新北市鶯歌區鶯桃路172號","lat":24.955428,"lng":121.337148},"908":{"store":"美廉社","store_name":"八德大福店","address":"桃園市八德區大福街139號","lat":24.9719892,"lng":121.2999469},"909":{"store":"美廉社","store_name":"八德永福西店","address":"桃園市八德區永福西街44號","lat":24.9631472,"lng":121.2977418},"910":{"store":"美廉社","store_name":"八德永福店","address":"桃園市八德區永福街131號","lat":24.962216,"lng":121.3034345},"911":{"store":"美廉社","store_name":"八德和平店","address":"桃園市八德區和平路1472號","lat":24.9704372,"lng":121.3234515},"912":{"store":"美廉社","store_name":"八德忠勇店","address":"桃園市八德區忠勇街353號","lat":24.9673358,"lng":121.3032966},"913":{"store":"美廉社","store_name":"八德建國店","address":"桃園市八德區建國路53號","lat":24.9319699,"lng":121.284892},"914":{"store":"美廉社","store_name":"八德重慶店","address":"桃園市八德區重慶街189號","lat":24.9561695,"lng":121.3043704},"915":{"store":"美廉社","store_name":"八德桃拾店","address":"桃園市八德區大和里桃拾街17號","lat":24.9550267,"lng":121.2972865},"916":{"store":"美廉社","store_name":"八德高城店","address":"桃園市八德區高城路40號","lat":24.9795225,"lng":121.2760697},"917":{"store":"美廉社","store_name":"八德陸光店","address":"桃園市八德區陸光街41號","lat":24.9614115,"lng":121.2981786},"918":{"store":"美廉社","store_name":"八德福國店","address":"桃園市八德區福國街54號","lat":24.9579157,"lng":121.2934852},"919":{"store":"美廉社","store_name":"大溪康莊店","address":"桃園市大溪區康莊路247號","lat":24.8782444,"lng":121.2881617},"920":{"store":"美廉社","store_name":"大溪僑愛店","address":"桃園市大溪區僑愛一街102號","lat":24.9232192,"lng":121.2943682},"921":{"store":"美廉社","store_name":"中壢文化店","address":"桃園市中壢區文化路349號","lat":24.9783948,"lng":121.2509816},"922":{"store":"美廉社","store_name":"中壢成功店","address":"桃園市中壢區成功路102號","lat":24.9755248,"lng":121.2601511},"923":{"store":"美廉社","store_name":"中壢利民店","address":"桃園市中壢區利民路13號","lat":24.9520135,"lng":121.2378215},"924":{"store":"美廉社","store_name":"中壢莊敬二店","address":"桃園市中壢區莊敬路819、821號","lat":24.9641132,"lng":121.2546795},"925":{"store":"美廉社","store_name":"中壢莊敬店","address":"桃園市中壢區莊敬路137號","lat":24.9688205,"lng":121.2575818},"926":{"store":"美廉社","store_name":"中壢復華店","address":"桃園市中壢區復華街274號","lat":24.9759209,"lng":121.2484082},"927":{"store":"美廉社","store_name":"中壢華美店","address":"桃園市中壢區華美一路155號","lat":24.9529089,"lng":121.2610792},"928":{"store":"美廉社","store_name":"中壢華祥店","address":"桃園市中壢區華祥一街3巷10號","lat":24.9487757,"lng":121.2609955},"929":{"store":"美廉社","store_name":"中壢華勛店","address":"桃園市中壢區華勛街81號","lat":24.951231,"lng":121.259091},"930":{"store":"美廉社","store_name":"中壢榮安店","address":"桃園市中壢區榮安八街37號1樓","lat":24.9623045,"lng":121.2589467},"931":{"store":"美廉社","store_name":"中壢福州店","address":"桃園市中壢區福州二街471號","lat":24.9683664,"lng":121.2334443},"932":{"store":"美廉社","store_name":"中壢興仁店","address":"桃園市中壢區興仁路二段142號","lat":24.965438,"lng":121.262817},"933":{"store":"美廉社","store_name":"中壢龍岡店","address":"桃園市中壢區龍岡路三段628號","lat":24.928301,"lng":121.241633},"934":{"store":"美廉社","store_name":"中壢龍昌店","address":"桃園市中壢區龍昌路210號","lat":24.9370997,"lng":121.2493819},"935":{"store":"美廉社","store_name":"中壢龍東店","address":"桃園市中壢區龍東路255巷191號","lat":24.9310763,"lng":121.2493229},"936":{"store":"美廉社","store_name":"平鎮中山店","address":"桃園市平鎮區中山路65號","lat":24.9281089,"lng":121.254355},"937":{"store":"美廉社","store_name":"平鎮平東店","address":"桃園市平鎮區平東路二段2號","lat":24.912143,"lng":121.231006},"938":{"store":"美廉社","store_name":"平鎮忠孝店","address":"桃園市平鎮區忠孝路188號之9","lat":24.9529666,"lng":121.2122063},"939":{"store":"美廉社","store_name":"平鎮南平店","address":"桃園市平鎮區南平路97號","lat":24.9191546,"lng":121.2087231},"940":{"store":"美廉社","store_name":"平鎮振興店","address":"桃園市平鎮區振興西路107號","lat":24.946342,"lng":121.2143506},"941":{"store":"美廉社","store_name":"平鎮崇義店","address":"桃園市平鎮區崇義六街2號","lat":24.9432742,"lng":121.2058607},"942":{"store":"美廉社","store_name":"平鎮陸橋南店","address":"桃園市平鎮區陸橋南路27號","lat":24.9248582,"lng":121.1891562},"943":{"store":"美廉社","store_name":"平鎮復旦店","address":"桃園市平鎮區復旦路二段128號","lat":24.9472729,"lng":121.2014776},"944":{"store":"美廉社","store_name":"平鎮新富二店","address":"桃園市平鎮區新富二街7號","lat":24.9414992,"lng":121.215834},"945":{"store":"美廉社","store_name":"平鎮新富店","address":"桃園市平鎮區新富五街121號","lat":24.940505,"lng":121.2123624},"946":{"store":"美廉社","store_name":"平鎮龍南店","address":"桃園市平鎮區龍南路143號","lat":24.9237483,"lng":121.2474288},"947":{"store":"美廉社","store_name":"桃園大豐店","address":"桃園市桃園區大豐路105號","lat":24.980219,"lng":121.315723},"948":{"store":"美廉社","store_name":"桃園中山北店","address":"桃園市桃園區中山北路179號","lat":24.9967088,"lng":121.3028522},"949":{"store":"美廉社","store_name":"桃園中正店","address":"桃園市桃園區中正五街153.155號","lat":25.0038235,"lng":121.2942545},"950":{"store":"美廉社","store_name":"桃園正康店","address":"桃園市桃園區正康三街226號1樓","lat":25.0090825,"lng":121.3066547},"951":{"store":"美廉社","store_name":"桃園民生店","address":"桃園市桃園區北門里民生路449號","lat":25.0013694,"lng":121.3098709},"952":{"store":"美廉社","store_name":"桃園民光店","address":"桃園市桃園區民光路99號","lat":25.0040562,"lng":121.3058271},"953":{"store":"美廉社","store_name":"桃園永安北店","address":"桃園市桃園區永安北路420號","lat":25.0172347,"lng":121.292685},"954":{"store":"美廉社","store_name":"桃園長沙店","address":"桃園市桃園區長沙街70號","lat":24.9804337,"lng":121.308655},"955":{"store":"美廉社","store_name":"桃園長春二店","address":"桃園市桃園區長春路184號","lat":25.0046342,"lng":121.3033351},"956":{"store":"美廉社","store_name":"桃園長春店","address":"桃園市桃園區長春路33號1樓","lat":25.0007798,"lng":121.3055694},"957":{"store":"美廉社","store_name":"桃園春日店","address":"桃園市桃園區春日路233號1樓","lat":24.9974325,"lng":121.3152356},"958":{"store":"美廉社","store_name":"桃園泰昌店","address":"桃園市桃園區泰昌六街47號","lat":24.9867759,"lng":121.294419},"959":{"store":"美廉社","store_name":"桃園慈光店","address":"桃園市桃園區慈光街113號","lat":25.0066999,"lng":121.299501},"960":{"store":"美廉社","store_name":"桃園榮華店","address":"桃園市桃園區榮華街63巷29號","lat":24.9743358,"lng":121.320933},"961":{"store":"美廉社","store_name":"桃園龍鳳店","address":"桃園市桃園區龍鳳三街72號","lat":24.9873616,"lng":121.2795176},"962":{"store":"美廉社","store_name":"桃園鎮撫店","address":"桃園市桃園區鎮撫街32-1號","lat":24.9977395,"lng":121.3137729},"963":{"store":"美廉社","store_name":"楊梅文化店","address":"桃園市楊梅區文化街202號1樓","lat":24.9125426,"lng":121.1836583},"964":{"store":"美廉社","store_name":"楊梅青山店","address":"桃園市楊梅區青山一街147、149號","lat":24.9212942,"lng":121.1737335},"965":{"store":"美廉社","store_name":"楊梅校前店","address":"桃園市楊梅區校前路232號1樓","lat":24.9022907,"lng":121.1497141},"966":{"store":"美廉社","store_name":"楊梅梅獅店","address":"桃園市楊梅區梅獅路二段188號","lat":24.9061653,"lng":121.1771555},"967":{"store":"美廉社","store_name":"楊梅新農二店","address":"桃園市楊梅區新農街469之1、2號","lat":24.912626,"lng":121.1595826},"968":{"store":"美廉社","store_name":"楊梅新農店","address":"桃園市楊梅區新農街二段102號","lat":24.9127267,"lng":121.1689006},"969":{"store":"美廉社","store_name":"龍潭中正店","address":"桃園市龍潭區中正路三林段146號","lat":24.8505265,"lng":121.2277223},"970":{"store":"美廉社","store_name":"龍潭中原店","address":"桃園市龍潭區中原路一段538號","lat":24.8471811,"lng":121.198646},"971":{"store":"美廉社","store_name":"龍潭中興店","address":"桃園市龍潭區中興路159號","lat":24.8747359,"lng":121.236848},"972":{"store":"美廉社","store_name":"龍潭民族店","address":"桃園市龍潭區民族路412號","lat":24.8362304,"lng":121.2335768},"973":{"store":"美廉社","store_name":"龍潭梅龍店","address":"桃園市龍潭區梅龍二街4.6號","lat":24.8721974,"lng":121.1969126},"974":{"store":"美廉社","store_name":"龜山文化店","address":"桃園市龜山區文化七路60號","lat":25.0515419,"lng":121.3627827},"975":{"store":"美廉社","store_name":"龜山文昌店","address":"桃園市龜山區文昌一街27號","lat":25.0580604,"lng":121.3685008},"976":{"store":"美廉社","store_name":"龜山文青二店","address":"桃園市龜山區文青路268號","lat":25.0395764,"lng":121.3899735},"977":{"store":"美廉社","store_name":"龜山文青店","address":"桃園市龜山區文青路211號","lat":25.0402786,"lng":121.3889388},"978":{"store":"美廉社","store_name":"龜山文德店","address":"桃園市龜山區文德路64號","lat":25.0569102,"lng":121.3804478},"979":{"store":"美廉社","store_name":"龜山明德店","address":"桃園市龜山區明德路264號","lat":24.9905866,"lng":121.3424022},"980":{"store":"美廉社","store_name":"龜山長壽店","address":"桃園市龜山區長壽路213號","lat":25.0001703,"lng":121.3404007},"981":{"store":"美廉社","store_name":"龜山頂興店","address":"桃園市龜山區頂興路147號1樓","lat":24.9884464,"lng":121.330339},"982":{"store":"美廉社","store_name":"蘆竹上興店","address":"桃園市蘆竹區上興路180號","lat":25.0189198,"lng":121.2614365},"983":{"store":"美廉社","store_name":"蘆竹六福店","address":"桃園市蘆竹區六福路245號","lat":25.0608417,"lng":121.2975871},"984":{"store":"美廉社","store_name":"蘆竹南竹二店","address":"桃園市蘆竹區南竹路5段172號","lat":25.0261101,"lng":121.2612439},"985":{"store":"美廉社","store_name":"蘆竹福祿店","address":"桃園市蘆竹區福祿一街33號1樓 ","lat":25.0554323,"lng":121.29679},"986":{"store":"美廉社","store_name":"大肚中沙店","address":"台中市大肚區中沙路164巷3弄116號","lat":24.1739523,"lng":120.5794868},"987":{"store":"美廉社","store_name":"大里大里店","address":"台中市大里區大里路338號","lat":24.0975872,"lng":120.6777139},"988":{"store":"美廉社","store_name":"大里日新店","address":"台中市大里區日新路429號","lat":24.1199917,"lng":120.6923375},"989":{"store":"美廉社","store_name":"大里立仁店","address":"台中市大里區立仁路75號","lat":24.1079619,"lng":120.7035202},"990":{"store":"美廉社","store_name":"大里成功店","address":"台中市大里區成功路124號","lat":24.0856846,"lng":120.7005256},"991":{"store":"美廉社","store_name":"大里至聖店","address":"台中市大里區至聖路74號","lat":24.106535,"lng":120.682796},"992":{"store":"美廉社","store_name":"大里東明店","address":"台中市大里區東明路293號","lat":24.1129484,"lng":120.6818238},"993":{"store":"美廉社","store_name":"大里東南店","address":"台中市大里區東南路169號","lat":24.0792538,"lng":120.6942708},"994":{"store":"美廉社","store_name":"大里塗城店","address":"台中市大里區塗城路188號","lat":24.0865593,"lng":120.7097876},"995":{"store":"美廉社","store_name":"大里新生店","address":"台中市大里區新生路115.117號","lat":24.1044446,"lng":120.6903844},"996":{"store":"美廉社","store_name":"大雅文化店","address":"台中市大雅區文化路6號","lat":24.2405287,"lng":120.6278983},"997":{"store":"美廉社","store_name":"台中中華店","address":"台中市中區中華路二段40號","lat":24.1477506,"lng":120.6795628},"998":{"store":"美廉社","store_name":"太平大源店","address":"台中市太平區大源路2-11號","lat":24.1456832,"lng":120.7254723},"999":{"store":"美廉社","store_name":"太平大興店","address":"台中市太平區大興路142號","lat":24.1538002,"lng":120.7335627},"1000":{"store":"美廉社","store_name":"太平中和店","address":"台中市太平區中和街177號","lat":24.1368608,"lng":120.723484},"1001":{"store":"美廉社","store_name":"太平永豐店","address":"台中市太平區永豐路30-3號","lat":24.124176,"lng":120.71253},"1002":{"store":"美廉社","store_name":"太平光興店","address":"台中市太平區光興路1608號","lat":24.1210964,"lng":120.7341507},"1003":{"store":"美廉社","store_name":"太平長億店","address":"台中市太平區永成里18鄰長億路24號","lat":24.1192561,"lng":120.7212832},"1004":{"store":"美廉社","store_name":"太平振福店","address":"台中市太平區振福路500.502號","lat":24.1538613,"lng":120.7088092},"1005":{"store":"美廉社","store_name":"太平新平店","address":"台中市太平區新平路一段211號","lat":24.133073,"lng":120.71613},"1006":{"store":"美廉社","store_name":"太平樹孝店","address":"台中市太平區樹孝路145號","lat":24.1533144,"lng":120.7179197},"1007":{"store":"美廉社","store_name":"太平鵬儀","address":"台中市太平區平安里鵬儀路90.92號","lat":24.120609,"lng":120.723683},"1008":{"store":"美廉社","store_name":"台中大連店","address":"台中市北屯區大連路一段112-1號","lat":24.176729,"lng":120.674522},"1009":{"store":"美廉社","store_name":"台中同榮店","address":"台中市北屯區同榮路238號","lat":24.196216,"lng":120.6622199},"1010":{"store":"美廉社","store_name":"台中昌平二店","address":"台中市北屯區昌平路二段52-3號","lat":24.1917721,"lng":120.68334},"1011":{"store":"美廉社","store_name":"台中昌平店","address":"台中市北屯區昌平路二段5-1號","lat":24.1789597,"lng":120.6905727},"1012":{"store":"美廉社","store_name":"台中軍福店","address":"台中市北屯區軍福十六路285號","lat":24.1751146,"lng":120.7254132},"1013":{"store":"美廉社","store_name":"台中祥順東店","address":"台中市北屯區祥順東路2段52號","lat":24.1710258,"lng":120.7295324},"1014":{"store":"美廉社","store_name":"台中陳平店","address":"台中市北屯區陳平路28號","lat":24.184632,"lng":120.666427},"1015":{"store":"美廉社","store_name":"台中青島西店","address":"台中市北區青島西街48.50號","lat":24.1715351,"lng":120.6731938},"1016":{"store":"美廉社","store_name":"台中富強店","address":"台中市北區富強街44號","lat":24.1585245,"lng":120.697493},"1017":{"store":"美廉社","store_name":"台中德化店","address":"台中市北區德化街20號","lat":24.1610764,"lng":120.6932841},"1018":{"store":"美廉社","store_name":"台中成都店","address":"台中市西屯區成都路304號","lat":24.1710943,"lng":120.6647314},"1019":{"store":"美廉社","store_name":"台中至善店","address":"台中市西屯區至善路232號","lat":24.1775104,"lng":120.6435077},"1020":{"store":"美廉社","store_name":"台中長安店","address":"台中市西屯區長安路二段299號","lat":24.1759711,"lng":120.6668898},"1021":{"store":"美廉社","store_name":"台中烈美店","address":"台中市西屯區烈美街128號","lat":24.180088,"lng":120.642685},"1022":{"store":"美廉社","store_name":"台中順和二店","address":"台中市西屯區工業區三十八路21號","lat":24.1761596,"lng":120.5894452},"1023":{"store":"美廉社","store_name":"台中寶慶店","address":"台中市西屯區寶慶街50巷8-2號","lat":24.1718115,"lng":120.6474437},"1024":{"store":"美廉社","store_name":"台中金山店","address":"台中市西區金山路27號","lat":24.140795,"lng":120.670768},"1025":{"store":"美廉社","store_name":"台中樂群店","address":"台中市西區樂群街67-1號1樓","lat":24.137933,"lng":120.6714095},"1026":{"store":"美廉社","store_name":"台中篤信店","address":"台中市西區篤信街67-69號","lat":24.1503286,"lng":120.6734483},"1027":{"store":"美廉社","store_name":"沙鹿忠貞店","address":"台中市沙鹿區區忠貞路242之1號","lat":24.2430381,"lng":120.6095525},"1028":{"store":"美廉社","store_name":"台中力行店","address":"台中市東區力行路83號","lat":24.1509285,"lng":120.6949624},"1029":{"store":"美廉社","store_name":"台中福仁店","address":"台中市東區福仁街30.32號","lat":24.1442198,"lng":120.6917195},"1030":{"store":"美廉社","store_name":"台中干城店","address":"台中市南屯區干城街271號","lat":24.1523204,"lng":120.6326339},"1031":{"store":"美廉社","store_name":"台中忠勇店","address":"台中市南屯區忠勇路20號","lat":24.1370549,"lng":120.6121986},"1032":{"store":"美廉社","store_name":"台中大慶店","address":"台中市南區大慶街二段25號","lat":24.1155663,"lng":120.650429},"1033":{"store":"美廉社","store_name":"台中南門店","address":"台中市南區南門路59巷81號","lat":24.12001,"lng":120.681242},"1034":{"store":"美廉社","store_name":"烏日中華店","address":"台中市烏日區中華路94號1樓","lat":24.1111776,"lng":120.6416766},"1035":{"store":"美廉社","store_name":"烏日光日店","address":"台中市烏日區光日路17號","lat":24.1025068,"lng":120.6241286},"1036":{"store":"美廉社","store_name":"神岡神岡店","address":"台中市神岡區神岡路66號","lat":24.25753,"lng":120.660318},"1037":{"store":"美廉社","store_name":"新社中和店","address":"台中市新社區中和街四段226號","lat":24.2437475,"lng":120.8081948},"1038":{"store":"美廉社","store_name":"潭子中山店","address":"台中市潭子區中山路一段7巷30號","lat":24.1883623,"lng":120.7012929},"1039":{"store":"美廉社","store_name":"潭子祥和店","address":"台中市潭子區祥和路229號","lat":24.2298023,"lng":120.7093437},"1040":{"store":"美廉社","store_name":"潭子復興店","address":"台中市潭子區復興路一段42號","lat":24.2033834,"lng":120.7063913},"1041":{"store":"美廉社","store_name":"潭子頭張店","address":"台中市潭子區頭張路1段128號","lat":24.1945796,"lng":120.6991952},"1042":{"store":"美廉社","store_name":"龍井中社店","address":"台中市龍井區中社路96號","lat":24.2007842,"lng":120.5644305},"1043":{"store":"美廉社","store_name":"龍井東海店","address":"台中市龍井區台灣大道五段3巷30弄48號","lat":24.1828197,"lng":120.5913168},"1044":{"store":"美廉社","store_name":"龍井國際店","address":"台中市龍井區國際街138號","lat":24.1870794,"lng":120.5956223},"1045":{"store":"美廉社","store_name":"豐原大明店","address":"台中市豐原區大明路68號","lat":24.2406647,"lng":120.7098628},"1046":{"store":"美廉社","store_name":"豐原水源店","address":"台中市豐原區水源路208號","lat":24.2558706,"lng":120.7400737},"1047":{"store":"美廉社","store_name":"豐原南陽店","address":"台中市豐原區南陽路125號","lat":24.242589,"lng":120.73032},"1048":{"store":"美廉社","store_name":"霧峰四德三店","address":"台中市霧峰區四德路477-3號","lat":24.0640747,"lng":120.6764987},"1049":{"store":"美廉社","store_name":"霧峰民生店","address":"台中市霧峰區民生路277號","lat":24.0762061,"lng":120.7149756},"1050":{"store":"美廉社","store_name":"台南武聖店","address":"台南市中西區武聖路133號","lat":23.005915,"lng":120.1911459},"1051":{"store":"美廉社","store_name":"台南德南店","address":"台南市仁德區德南路108號","lat":22.9466401,"lng":120.2551588},"1052":{"store":"美廉社","store_name":"台南大港店","address":"台南市北區大港街112號","lat":23.0137929,"lng":120.1907386},"1053":{"store":"美廉社","store_name":"台南北成店","address":"台南市北區北成路26號","lat":23.018667,"lng":120.2112103},"1054":{"store":"美廉社","store_name":"台南北園店","address":"台南市北區北園街126號","lat":23.01324,"lng":120.2227573},"1055":{"store":"美廉社","store_name":"台南南園店","address":"台南市北區南園街93號","lat":23.0081252,"lng":120.22535},"1056":{"store":"美廉社","store_name":"台南華興店","address":"台南市永康區華興街103~107號","lat":23.00071,"lng":120.236944},"1057":{"store":"美廉社","store_name":"永康中正店","address":"台南市永康區中正路752號","lat":23.0367038,"lng":120.2424229},"1058":{"store":"美廉社","store_name":"永康中華店","address":"台南市永康區中華二路330號","lat":23.0085006,"lng":120.2314597},"1059":{"store":"美廉社","store_name":"永康南台店","address":"台南市永康區南台街22號1樓","lat":23.0222659,"lng":120.2243859},"1060":{"store":"美廉社","store_name":"台南安平店","address":"台南市安平區安平路71號","lat":22.9993667,"lng":120.1658633},"1061":{"store":"美廉社","store_name":"台南國安店","address":"台南市安南區國安街97.99號","lat":23.0222297,"lng":120.1890839},"1062":{"store":"美廉社","store_name":"台南崇德店","address":"台南市東區崇德路445號","lat":22.9752068,"lng":120.2259274},"1063":{"store":"美廉社","store_name":"台南富農店","address":"台南市東區自強里富農街一段111號","lat":22.981365,"lng":120.234364},"1064":{"store":"美廉社","store_name":"台南新孝店","address":"台南市南區新孝路76號1樓","lat":22.9779591,"lng":120.1888941},"1065":{"store":"美廉社","store_name":"台南新都店","address":"台南市南區新都路546號","lat":22.9672774,"lng":120.1915709},"1066":{"store":"美廉社","store_name":"台南柳營店","address":"台南市柳營區中山西路一段120號","lat":23.279204,"lng":120.3221491},"1067":{"store":"美廉社","store_name":"善化六分寮店","address":"台南市善化區六分寮325之31號","lat":23.1533328,"lng":120.3012582},"1068":{"store":"美廉社","store_name":"台南關廟店","address":"台南市關廟區中山路一段211號","lat":22.9588254,"lng":120.3315757},"1069":{"store":"美廉社","store_name":"三民北平店","address":"高雄市三民區北平一街118號","lat":22.650131,"lng":120.305347},"1070":{"store":"美廉社","store_name":"三民正興店","address":"高雄市三民區正興路163巷10號","lat":22.6466164,"lng":120.3194707},"1071":{"store":"美廉社","store_name":"三民建元店","address":"高雄市三民區建元路60號","lat":22.646465,"lng":120.317674},"1072":{"store":"美廉社","store_name":"三民鼎貴店","address":"高雄市三民區鼎貴路29號","lat":22.6722096,"lng":120.3244117},"1073":{"store":"美廉社","store_name":"三民鼎新店","address":"高雄市三民區鼎新路202-28號","lat":22.665808,"lng":120.3233634},"1074":{"store":"美廉社","store_name":"三民熱河店","address":"高雄市三民區熱河二街109號1樓","lat":22.64411,"lng":120.299987},"1075":{"store":"美廉社","store_name":"三民瀋陽店","address":"高雄市三民區瀋陽街110號","lat":22.643235,"lng":120.307517},"1076":{"store":"美廉社","store_name":"三民灣中店","address":"高雄市三民區灣中街330號","lat":22.6498868,"lng":120.317805},"1077":{"store":"美廉社","store_name":"三民灣復店","address":"高雄市三民區灣復街24號","lat":22.6521179,"lng":120.3170833},"1078":{"store":"美廉社","store_name":"大社金龍店","address":"高雄市大社區金龍路314號1樓","lat":22.7255918,"lng":120.3535378},"1079":{"store":"美廉社","store_name":"大寮中正店","address":"高雄市大寮區中正路59號","lat":22.6185753,"lng":120.3875482},"1080":{"store":"美廉社","store_name":"大寮華中南店","address":"高雄市大寮區華中南路317號","lat":22.5616116,"lng":120.4287362},"1081":{"store":"美廉社","store_name":"小港民益店","address":"高雄市小港區民益路43.45號","lat":22.566782,"lng":120.347844},"1082":{"store":"美廉社","store_name":"小港松信店","address":"高雄市小港區松信路70號","lat":22.5608893,"lng":120.3744764},"1083":{"store":"美廉社","store_name":"仁武仁心店","address":"高雄市仁武區仁心路211號","lat":22.6867226,"lng":120.3649218},"1084":{"store":"美廉社","store_name":"仁武仁孝店","address":"高雄市仁武區仁孝路296號","lat":22.6751298,"lng":120.3495363},"1085":{"store":"美廉社","store_name":"仁武仁和店","address":"高雄市仁武區仁和街97號","lat":22.7042432,"lng":120.3474811},"1086":{"store":"美廉社","store_name":"左營介壽店","address":"高雄市左營區介壽路243號","lat":22.6811709,"lng":120.2812419},"1087":{"store":"美廉社","store_name":"左營果峰店","address":"高雄市左營區果峰街12巷30號","lat":22.6716825,"lng":120.2880128},"1088":{"store":"美廉社","store_name":"左營重愛店","address":"高雄市左營區重愛路306號","lat":22.686592,"lng":120.314544},"1089":{"store":"美廉社","store_name":"左營翠華店","address":"高雄市左營區翠華路601巷77號","lat":22.6727468,"lng":120.2892165},"1090":{"store":"美廉社","store_name":"岡山柳橋東店","address":"高雄市岡山區柳橋東路9號","lat":22.7908362,"lng":120.2953941},"1091":{"store":"美廉社","store_name":"林園沿海店","address":"高雄市林園區沿海路四段193號","lat":22.5032769,"lng":120.3804833},"1092":{"store":"美廉社","store_name":"前鎮中華店","address":"高雄市前鎮區中華五路969巷7號","lat":22.6012022,"lng":120.3049},"1093":{"store":"美廉社","store_name":"前鎮長江店","address":"高雄市前鎮區興東里長江街64號","lat":22.6101818,"lng":120.315531},"1094":{"store":"美廉社","store_name":"前鎮廉江店","address":"高雄市前鎮區廉江街45號","lat":22.60898,"lng":120.318059},"1095":{"store":"美廉社","store_name":"前鎮鎮興店","address":"高雄市前鎮區鎮興路196號","lat":22.5927061,"lng":120.3118848},"1096":{"store":"美廉社","store_name":"高雄崗山南店","address":"高雄市前鎮區崗山南街300、302號","lat":22.6029419,"lng":120.3327825},"1097":{"store":"美廉社","store_name":"苓雅武仁店","address":"高雄市苓雅區武仁街131號","lat":22.6200617,"lng":120.3329166},"1098":{"store":"美廉社","store_name":"苓雅武慶店","address":"高雄市苓雅區武慶三路81-1~81-2號","lat":22.62136,"lng":120.331569},"1099":{"store":"美廉社","store_name":"苓雅苓雅二店","address":"高雄市苓雅區苓雅一路299.301號","lat":22.6224182,"lng":120.3148808},"1100":{"store":"美廉社","store_name":"苓雅苓雅店","address":"高雄市苓雅區苓雅二路222號","lat":22.6160615,"lng":120.2953106},"1101":{"store":"美廉社","store_name":"苓雅廣東店","address":"高雄市苓雅區廣東二街76號","lat":22.6173376,"lng":120.3212005},"1102":{"store":"美廉社","store_name":"苓雅興中店","address":"高雄市苓雅區興中二路35號","lat":22.6149076,"lng":120.3026691},"1103":{"store":"美廉社","store_name":"新興復橫店","address":"高雄市新興區復橫一路66號","lat":22.6292287,"lng":120.3110416},"1104":{"store":"美廉社","store_name":"新興新田店","address":"高雄市新興區新田路70號","lat":22.6233854,"lng":120.3064521},"1105":{"store":"美廉社","store_name":"楠梓惠心店","address":"高雄市楠梓區惠心街25號","lat":22.7291698,"lng":120.3218798},"1106":{"store":"美廉社","store_name":"楠梓廣昌店","address":"高雄市楠梓區廣昌街181號","lat":22.7086332,"lng":120.2850162},"1107":{"store":"美廉社","store_name":"路竹中興店","address":"高雄市路竹區中興路150-2號","lat":22.8582065,"lng":120.2620256},"1108":{"store":"美廉社","store_name":"鼓山臨海店","address":"高雄市鼓山區臨海一路15號","lat":22.620881,"lng":120.273182},"1109":{"store":"美廉社","store_name":"旗山旗南店","address":"高雄市旗山區旗南二路85-4及85-5號","lat":22.842987,"lng":120.464402},"1110":{"store":"美廉社","store_name":"旗津通山店","address":"高雄市旗津區通山路21號","lat":22.6128267,"lng":120.2688895},"1111":{"store":"美廉社","store_name":"鳳山八德店","address":"高雄市鳳山區八德路143號","lat":22.6381893,"lng":120.3592137},"1112":{"store":"美廉社","store_name":"鳳山中山東店","address":"高雄市鳳山區中山東路192巷36號","lat":22.6252773,"lng":120.3770507},"1113":{"store":"美廉社","store_name":"鳳山光華東店","address":"高雄市鳳山區光華東路14號","lat":22.6191091,"lng":120.356326},"1114":{"store":"美廉社","store_name":"鳳山杭州店","address":"高雄市鳳山區杭州西街142號","lat":22.619048,"lng":120.373961},"1115":{"store":"美廉社","store_name":"鳳山海洋店","address":"高雄市鳳山區海洋一路81號","lat":22.6099789,"lng":120.3436791},"1116":{"store":"美廉社","store_name":"鳳山國富店","address":"高雄市鳳山區國富路25號","lat":22.61507,"lng":120.349766},"1117":{"store":"美廉社","store_name":"鳳山頂庄店","address":"高雄市鳳山區頂庄路183號","lat":22.5882572,"lng":120.3609867},"1118":{"store":"美廉社","store_name":"鳳山瑞興店","address":"高雄市鳳山區瑞興路153號","lat":22.6262833,"lng":120.3661582},"1119":{"store":"美廉社","store_name":"鹽埕建國店","address":"高雄市鹽埕區建國四路187.189號1樓","lat":22.631193,"lng":120.283155},"1120":{"store":"美廉社","store_name":"基隆百三店","address":"基隆市七堵區百三街77號","lat":25.0819988,"lng":121.6966934},"1121":{"store":"美廉社","store_name":"基隆百六店","address":"基隆市七堵區百六街61號","lat":25.0853668,"lng":121.6957866},"1122":{"store":"美廉社","store_name":"基隆南興店","address":"基隆市七堵區南興路80號","lat":25.097002,"lng":121.712838},"1123":{"store":"美廉社","store_name":"基隆崇智店","address":"基隆市七堵區崇智路25號1樓","lat":25.1129128,"lng":121.7290908},"1124":{"store":"美廉社","store_name":"基隆中和店","address":"基隆市中山區中和路164巷1號","lat":25.148978,"lng":121.7181976},"1125":{"store":"美廉社","store_name":"基隆中華店","address":"基隆市中山區中華路103號","lat":25.1479576,"lng":121.7378212},"1126":{"store":"美廉社","store_name":"基隆復興二店","address":"基隆市中山區復興路240號","lat":25.1471709,"lng":121.7257721},"1127":{"store":"美廉社","store_name":"基隆豐稔店","address":"基隆市中正區豐稔街17號","lat":25.1412336,"lng":121.7609114},"1128":{"store":"美廉社","store_name":"基隆南榮店","address":"基隆市仁愛區南榮路211號","lat":25.1231721,"lng":121.7430798},"1129":{"store":"美廉社","store_name":"基隆愛九二店","address":"基隆市仁愛區愛九路11號","lat":25.1275429,"lng":121.75287},"1130":{"store":"美廉社","store_name":"基隆安一店","address":"基隆市安樂區安一路230號","lat":25.132856,"lng":121.731316},"1131":{"store":"美廉社","store_name":"基隆新城店","address":"基隆市安樂區樂利三街120號","lat":25.1264156,"lng":121.7154822},"1132":{"store":"美廉社","store_name":"基隆深澳坑店","address":"基隆市信義區深澳坑路2-42號","lat":25.1364584,"lng":121.7736281},"1133":{"store":"美廉社","store_name":"基隆暖暖店","address":"基隆市暖暖區暖暖路243-1號","lat":25.0970548,"lng":121.7517048},"1134":{"store":"美廉社","store_name":"基隆源遠店","address":"基隆市暖暖區源遠路229號","lat":25.0986557,"lng":121.7537797},"1135":{"store":"美廉社","store_name":"新竹中華四店","address":"新竹市中華路六段295號","lat":24.7418466,"lng":120.908894},"1136":{"store":"美廉社","store_name":"新竹中華店","address":"新竹市中華路5段670號","lat":24.7673581,"lng":120.9154593},"1137":{"store":"美廉社","store_name":"新竹光復二店","address":"新竹市東區光復路一段89巷141號","lat":24.778335,"lng":121.02536},"1138":{"store":"美廉社","store_name":"新竹光華店","address":"新竹市光華二街115.117號","lat":24.8200886,"lng":120.9763525},"1139":{"store":"美廉社","store_name":"新竹延平店","address":"新竹市香山區延平路二段235,237號","lat":24.8149226,"lng":120.9288477},"1140":{"store":"美廉社","store_name":"新竹明湖店","address":"新竹市東區明湖路1050巷8號","lat":24.7668521,"lng":120.978441},"1141":{"store":"美廉社","store_name":"新竹東大二店","address":"新竹市北區東大路三段525號","lat":24.8401513,"lng":120.9378951},"1142":{"store":"美廉社","store_name":"新竹東大店","address":"新竹市北區東大路四段295號","lat":24.8455826,"lng":120.9275783},"1143":{"store":"美廉社","store_name":"新竹金山店","address":"新竹市東區金山十二街21號","lat":24.7770231,"lng":121.022345},"1144":{"store":"美廉社","store_name":"新竹金竹店","address":"新竹市北區金竹路120號","lat":24.8238188,"lng":120.9726372},"1145":{"store":"美廉社","store_name":"新竹長春店","address":"新竹市東區長春街79號","lat":24.7866744,"lng":121.0150699},"1146":{"store":"美廉社","store_name":"新竹南大二店","address":"新竹市東區南大路273號","lat":24.7984916,"lng":120.971253},"1147":{"store":"美廉社","store_name":"新竹南大店","address":"新竹市東區南大路750-1號","lat":24.7902046,"lng":120.9652017},"1148":{"store":"美廉社","store_name":"新竹科學園區店","address":"新竹市東區科學園路26號1樓","lat":24.7862138,"lng":121.0097927},"1149":{"store":"美廉社","store_name":"新竹香北店","address":"新竹市香山區香北路235-237號","lat":24.7900254,"lng":120.9252292},"1150":{"store":"美廉社","store_name":"新竹埔頂店","address":"新竹市東區埔頂路104號","lat":24.7944703,"lng":121.0093138},"1151":{"store":"美廉社","store_name":"新竹振興店","address":"新竹市振興里振興路37.39號","lat":24.7950489,"lng":120.9614169},"1152":{"store":"美廉社","store_name":"新竹高翠店","address":"新竹市東區高翠路341號","lat":24.7777284,"lng":120.9842383},"1153":{"store":"美廉社","store_name":"新竹崧嶺店","address":"新竹市北區崧嶺路38號","lat":24.7952755,"lng":120.9556817},"1154":{"store":"美廉社","store_name":"嘉義仁愛店","address":"嘉義市西區仁愛路220號","lat":23.4695966,"lng":120.4428304},"1155":{"store":"美廉社","store_name":"嘉義文雅店","address":"嘉義市東區文雅街253號","lat":23.482404,"lng":120.483809},"1156":{"store":"美廉社","store_name":"嘉義民生南店","address":"嘉義市西區民生南路465號","lat":23.4583693,"lng":120.4435709},"1157":{"store":"美廉社","store_name":"嘉義自強店","address":"嘉義市西區自強街107號","lat":23.4648633,"lng":120.4225963},"1158":{"store":"美廉社","store_name":"嘉義保義店","address":"嘉義市東區保義路17號","lat":23.5011131,"lng":120.4524884},"1159":{"store":"美廉社","store_name":"嘉義興安店","address":"嘉義市東區興安街92號","lat":23.4605411,"lng":120.4514753},"1160":{"store":"美廉社","store_name":"北埔北埔店","address":"新竹縣北埔鄉北埔街76號","lat":24.7001609,"lng":121.0558201},"1161":{"store":"美廉社","store_name":"竹北中山店","address":"新竹縣竹北市中山路561號","lat":24.8333175,"lng":121.0270194},"1162":{"store":"美廉社","store_name":"竹北中正西二店","address":"新竹縣竹北市中正西路2015號","lat":24.8418456,"lng":120.9549454},"1163":{"store":"美廉社","store_name":"竹北中正西店","address":"新竹縣竹北市中正西路330號","lat":24.843219,"lng":120.99618},"1164":{"store":"美廉社","store_name":"竹北新泰店","address":"新竹縣竹北市新泰路98號","lat":24.840073,"lng":121.0082615},"1165":{"store":"美廉社","store_name":"竹北嘉興店","address":"新竹縣竹北市嘉興路459號","lat":24.8220249,"lng":121.0324093},"1166":{"store":"美廉社","store_name":"竹東中正二店","address":"新竹縣竹東鎮中正路197號","lat":24.7346585,"lng":121.0929553},"1167":{"store":"美廉社","store_name":"竹東中興店","address":"新竹縣竹東鎮中興路一段270號","lat":24.757072,"lng":121.069337},"1168":{"store":"美廉社","store_name":"竹東中豐二店","address":"新竹縣竹東鎮中豐路二段233號","lat":24.7232711,"lng":121.0917818},"1169":{"store":"美廉社","store_name":"竹東北興店","address":"新竹縣竹東鎮北興路3段458之1號","lat":24.7481226,"lng":121.0828889},"1170":{"store":"美廉社","store_name":"竹東光明店","address":"新竹縣竹東鎮光明路126巷3弄22號","lat":24.7692688,"lng":121.0578938},"1171":{"store":"美廉社","store_name":"竹東東峰店","address":"新竹縣竹東鎮東峰路61號","lat":24.720629,"lng":121.096513},"1172":{"store":"美廉社","store_name":"竹東東寧店","address":"新竹縣竹東鎮東寧路三段31號1樓","lat":24.7373413,"lng":121.0878174},"1173":{"store":"美廉社","store_name":"竹東榮樂店","address":"新竹縣竹東鎮榮樂街86號","lat":24.7398825,"lng":121.0877585},"1174":{"store":"美廉社","store_name":"新竹芎林店","address":"新竹縣芎林鄉上山村2鄰文德路39~45號","lat":24.7751833,"lng":121.0742864},"1175":{"store":"美廉社","store_name":"湖口中山店","address":"新竹縣湖口鄉中山路3段463號","lat":24.9185463,"lng":121.0538041},"1176":{"store":"美廉社","store_name":"湖口光復東二店","address":"新竹縣湖口鄉光復東路402號","lat":24.8663111,"lng":121.0232721},"1177":{"store":"美廉社","store_name":"湖口光復東店","address":"新竹縣湖口鄉光復東路183號1樓","lat":24.8696581,"lng":121.028489},"1178":{"store":"美廉社","store_name":"湖口安宅店","address":"新竹縣湖口鄉勝利村安宅八街7號","lat":24.8674122,"lng":121.0263104},"1179":{"store":"美廉社","store_name":"湖口信全店","address":"新竹縣湖口鄉信全街29、31號","lat":24.8999136,"lng":121.0414671},"1180":{"store":"美廉社","store_name":"湖口勝利店","address":"新竹縣湖口鄉勝利路1段117號","lat":24.858214,"lng":121.0198149},"1181":{"store":"美廉社","store_name":"新竹湖口店","address":"新竹縣湖口鄉仁樂路5號","lat":24.8709161,"lng":121.0144187},"1182":{"store":"美廉社","store_name":"新豐中興店","address":"新竹縣新豐鄉中興路197號","lat":24.8757652,"lng":120.9962812},"1183":{"store":"美廉社","store_name":"新豐泰安店","address":"新竹縣新豐鄉泰安街60號","lat":24.8701673,"lng":120.9939045},"1184":{"store":"美廉社","store_name":"新豐康樂二店","address":"新竹縣新豐鄉康樂路一段412號1樓","lat":24.8728164,"lng":120.985351},"1185":{"store":"美廉社","store_name":"新豐康樂店","address":"新竹縣新豐鄉康樂路一段104號","lat":24.8667166,"lng":120.990265},"1186":{"store":"美廉社","store_name":"橫山中豐店","address":"新竹縣橫山鄉中豐路二段112-5號","lat":24.7259607,"lng":121.1295844},"1187":{"store":"美廉社","store_name":"寶山雙豐店","address":"新竹縣寶山鄉雙豐路15號","lat":24.765474,"lng":120.9898},"1188":{"store":"美廉社","store_name":"公館鶴岡店","address":"苗栗縣公館鄉鶴山村10鄰326-1-2號","lat":24.5375451,"lng":120.8283589},"1189":{"store":"美廉社","store_name":"竹南大同店","address":"苗栗縣竹南鎮大同街29號","lat":24.6843312,"lng":120.8678656},"1190":{"store":"美廉社","store_name":"竹南明勝店","address":"苗栗縣竹南鎮明勝路408號","lat":24.6745608,"lng":120.8618405},"1191":{"store":"美廉社","store_name":"竹南維新店","address":"苗栗縣竹南鎮維新路45號","lat":24.6830127,"lng":120.8819605},"1192":{"store":"美廉社","store_name":"竹南龍山二店","address":"苗栗縣竹南鎮龍山路一段142號","lat":24.6917116,"lng":120.8664518},"1193":{"store":"美廉社","store_name":"竹南龍山店","address":"苗栗縣竹南鎮龍山路三段330號","lat":24.702046,"lng":120.8845838},"1194":{"store":"美廉社","store_name":"苗栗中正店","address":"苗栗縣苗栗市中正路1142號","lat":24.5461568,"lng":120.816283},"1195":{"store":"美廉社","store_name":"苗栗府前店","address":"苗栗縣苗栗市府前路83號","lat":24.5616268,"lng":120.8195163},"1196":{"store":"美廉社","store_name":"苗栗新東店","address":"苗栗縣苗栗市新東街81號","lat":24.5518544,"lng":120.8199249},"1197":{"store":"美廉社","store_name":"造橋尖豐店","address":"苗栗縣造橋鄉尖豐路11號","lat":24.664002,"lng":120.880307},"1198":{"store":"美廉社","store_name":"頭份中正店","address":"苗栗縣頭份鎮中正二路293號","lat":24.6799454,"lng":120.950107},"1199":{"store":"美廉社","store_name":"頭份信義店","address":"苗栗縣頭份市信義路430號","lat":24.6961981,"lng":120.8962721},"1200":{"store":"美廉社","store_name":"彰化大村二店","address":"彰化縣大村鄉山腳路56-2號","lat":23.9845061,"lng":120.5890756},"1201":{"store":"美廉社","store_name":"彰化大村店","address":"彰化縣大村鄉山腳路92-15號","lat":23.9920865,"lng":120.5835104},"1202":{"store":"美廉社","store_name":"彰化社頭店","address":"彰化縣社頭鄉山腳路四段451-1號","lat":23.9356868,"lng":120.6022568},"1203":{"store":"美廉社","store_name":"彰化崙平北店","address":"彰化縣彰化市崙平北路78號","lat":24.0686507,"lng":120.5289203},"1204":{"store":"美廉社","store_name":"埔里西安店","address":"南投縣埔里鎮西安路二段165號","lat":23.991588,"lng":120.9748116},"1205":{"store":"美廉社","store_name":"埔里鐵山店","address":"南投縣埔里鎮鐵山路108號","lat":23.9742501,"lng":120.9438063},"1206":{"store":"美廉社","store_name":"草屯碧山店","address":"南投縣草屯鎮碧山路756-5號","lat":23.976333,"lng":120.6670679},"1207":{"store":"美廉社","store_name":"斗六中興店","address":"雲林縣斗六市中興路15號","lat":23.7232444,"lng":120.5821037},"1208":{"store":"美廉社","store_name":"斗六仁義店","address":"雲林縣斗六市仁義路57號","lat":23.6807894,"lng":120.5384562},"1209":{"store":"美廉社","store_name":"斗六龍潭店","address":"雲林縣斗六市龍潭路16之1號","lat":23.6919347,"lng":120.5300151},"1210":{"store":"美廉社","store_name":"雲林水林店","address":"雲林縣水林鄉水林路123號","lat":23.5723966,"lng":120.2461305},"1211":{"store":"美廉社","store_name":"虎尾四維店","address":"雲林縣虎尾鎮四維街78號","lat":23.703456,"lng":120.425208},"1212":{"store":"美廉社","store_name":"虎尾民權店","address":"雲林縣虎尾鎮民權路2-3號","lat":23.7084937,"lng":120.4370377},"1213":{"store":"美廉社","store_name":"虎尾林森店","address":"雲林縣虎尾鎮林森路一段8號","lat":23.7200762,"lng":120.4432549},"1214":{"store":"美廉社","store_name":"嘉義大林店","address":"嘉義縣大林鎮新興街42號","lat":23.6021607,"lng":120.4587047},"1215":{"store":"美廉社","store_name":"太保後潭店","address":"嘉義縣太保市後潭里後潭318號","lat":23.452116,"lng":120.345316},"1216":{"store":"美廉社","store_name":"水上中庄店","address":"嘉義縣水上鄉中庄村中庄64號","lat":23.4212563,"lng":120.4378304},"1217":{"store":"美廉社","store_name":"水上忠孝店","address":"嘉義縣水上鄉忠孝街251號","lat":23.4499912,"lng":120.4333206},"1218":{"store":"美廉社","store_name":"民雄裕農店","address":"嘉義縣民雄鄉裕農路199號","lat":23.558545,"lng":120.469851},"1219":{"store":"美廉社","store_name":"嘉義鹿草二店","address":"嘉義縣鹿草鄉鹿草村鹿草路169號","lat":23.4097061,"lng":120.3102753},"1220":{"store":"美廉社","store_name":"嘉義溪口店","address":"嘉義縣溪口鄉東村民生街97號","lat":23.6038041,"lng":120.3975844},"1221":{"store":"美廉社","store_name":"嘉義義竹店","address":"嘉義縣義竹鄉六桂村171-1號","lat":23.4217861,"lng":120.3558415},"1222":{"store":"美廉社","store_name":"屏東長治店","address":"屏東縣長治鄉長興路52-6號","lat":22.6775839,"lng":120.5264421},"1223":{"store":"美廉社","store_name":"屏東大武店","address":"屏東縣屏東市大武路333號","lat":22.662873,"lng":120.472735},"1224":{"store":"美廉社","store_name":"屏東建華店","address":"屏東縣屏東市建華一街104號","lat":22.668447,"lng":120.484762},"1225":{"store":"美廉社","store_name":"屏東棒球店","address":"屏東縣屏東市永安里棒球路41號","lat":22.6559217,"lng":120.4820004},"1226":{"store":"美廉社","store_name":"屏東新園店","address":"屏東縣新園鄉南興路301號","lat":22.490987,"lng":120.45893},"1227":{"store":"美廉社","store_name":"屏東萬巒店","address":"屏東縣萬巒鄉中正路54號","lat":22.5730141,"lng":120.5682296},"1228":{"store":"美廉社","store_name":"三星三星店","address":"宜蘭縣三星鄉三星路二段77號","lat":24.6692841,"lng":121.7072679},"1229":{"store":"美廉社","store_name":"五結親河店","address":"宜蘭縣五結鄉親河路一段91號","lat":24.6922234,"lng":121.8294356},"1230":{"store":"美廉社","store_name":"冬山廣興店","address":"宜蘭縣冬山鄉廣興路172號","lat":24.6701678,"lng":121.749665},"1231":{"store":"美廉社","store_name":"宜蘭延平店","address":"宜蘭縣宜蘭市延平路38之52、53號","lat":24.7558931,"lng":121.7665922},"1232":{"store":"美廉社","store_name":"宜蘭進士店","address":"宜蘭縣宜蘭市進士路149號","lat":24.7438074,"lng":121.7478379},"1233":{"store":"美廉社","store_name":"員山永同店","address":"宜蘭縣員山鄉永同路一段229號","lat":24.7634322,"lng":121.7265689}}